,store_name,brand,address,lat,lng
0,VM+ VTU Đất trống giáo xứ Thánh Phong,vinmart+,"Đất trống giáo xứ Thánh Phong, tổ 1, ấp Mỹ Thạnh, Xã Mỹ Xuân, Huyện Tân Thành, Bà Rịa - Vũng Tàu",10.629769505971993,107.04095342181398
1,VM+ VTU 15-17 Nguyễn Hữu Cảnh,vinmart+,"15-17 Nguyễn Hữu Cảnh, phường Nguyễn An Ninh, Vũng Tàu",10.395165369583312,107.10549809954836
2,VM+ VTU 679 – 681 Võ Văn Kiệt,vinmart+,"679 – 681 Võ Văn Kiệt, P.Long Tâm, Bà Rịa – Vũng Tàu",10.506329185813176,107.19600656054688
3,VM+ VTU 83 Nguyễn Cư Trinh,vinmart+,"83 Nguyễn Cư Trinh, thị xã Phú Mỹ, Tỉnh Bà Rịa – Vũng Tàu",10.588093910557683,107.05867745898442
4,"VM+ VTU Tổ 3, Ấp Mỹ Xuân",vinmart+,"Tổ 3, Ấp Mỹ Xuân, huyện Tân Thành, Bà Rịa - Vũng Tàu",10.626901327199484,107.0518110039063
5,VM+ VTU159 Lê Quang Định,vinmart+,"VM+ VTU 159 Lê Quang Định , P.Thắng Nhất, Vũng Tàu",10.382670675071296,107.09758021853642
6,VM+ VTU 238 Ba Cu,vinmart+,"VM+ VTU 238 Ba Cu, Phường 3, Vũng Tàu, Bà Rịa Vũng Tàu",10.351009586919854,107.08219506762696
7,VM+ VTU 33A đường 30 tháng 4,vinmart+,"Tầng trệt tòa nhà Lapen Center, 33A 33A đường 30 tháng 4, phường 9, thành phố Vũng Tàu, tỉnh Bà rịa Vũng Tàu.",10.400315064461168,107.12038972399904
8,VM+ VTU 1481 đường 30/4,vinmart+,"1481 đường 30/4, P.12, thành phố Vũng Tàu,TỈNH Bà Rịa Vũng Tàu ( Thửa 124 )",10.402256730642227,107.1230504753418
9,VM+ VTU 134B Nam Kỳ Khởi Nghĩa,vinmart+,134B Nam Kỳ Khởi Nghĩa - phường Thắng Tam -thành Phố Vũng Tàu - tỉnh Bà Rịa - Vũng Tàu - Việt Nam,10.348202149385418,107.08584287188722
10,VM+ AGG 141/5 Nguyễn Thái Học,vinmart+,"141/5 Nguyễn Thái Học, Phường Mỹ Bình, TP Long Xuyên, Tỉnh An Giang.",10.42977643827834,105.41759469531252
11,"VM+ AGG Thửa 173, TBĐ 6",vinmart+,"Thửa 173, TBĐ 6, Mỹ Phước, Long Xuyên, An Giang",10.413568806394323,105.40111520312502
12,VM+ AGG 590/15A Hà Hoàng Hổ,vinmart+,"590/15A Hà Hoàng Hổ, Phường Đông Xuyên, TP Long Xuyên, Tỉnh An Giang",10.394321149206414,105.43544747851564
13,VM+ AGG 77 Ung Văn Khiêm,vinmart+,"77 Ung Văn Khiêm, tổ 6, Khóm Đông Thành, Phường Đông Xuyên, Thành phố Long Xuyên, tỉnh An Giang ( 3-4-5 Ung Văn Khiêm)",10.382164122867687,105.42394616625978
14,"VM+ AGG Thửa 75 và 74, TBĐ 017",vinmart+,"Thửa 75 và 74, tờ bản đồ số 017 tại Phường Mỹ Xuyên, TP Long Xuyên, Tỉnh An Giang",10.364940859994855,105.44506051562502
15,VM+ QNM 131 Phan Châu Trinh,vinmart+,"131 Phan Châu Trinh, Phường Cẩm Phô, TP Hội An, Quảng Nam",15.878458270276086,108.32442262194826
16,VM+DNI 17/15A – 15/15B Huỳnh Văn Nghệ,vinmart+,"17/15A – 15/15B Huỳnh Văn Nghệ, KP2, P.Bửu Long, Biên Hòa",10.954325211390897,106.8014670255013
17,VM+ HCM 107/4A Hương Lộ 80B,vinmart+,"107/4A Hương Lộ 80B, Phường Hiệp Thành, Quận 12, TP Hồ Chí Minh",10.88479961666648,106.6302294375725
18,VM+ STG 78 Mạc Đỉnh Chi,vinmart+,"78 Mạc Đỉnh Chi, khóm 3, phường 9, TP Sóc Trăng, tỉnh Sóc Trăng",9.602615080291589,105.97873427890016
19,VM+ VLG 86 Nguyễn Huệ,vinmart+,"86 Nguyễn Huệ, Phường 2, TP. Vĩnh Long, Tỉnh Vĩnh Long",10.248923082359092,105.96061327479558
20,"VM+ LAN TĐ 83(1p), TBĐ 27, Quốc lộ 62",vinmart+,"TĐ 83(1p), TBĐ 27, Quốc lộ 62, Phường 6, TP. Tân An, Tỉnh Long An ( 320 Quốc Lộ 62 )",10.54344875978056,106.3975183012314
21,VM+ TNH 414 Bời Lời,vinmart+,"414 Bời Lời, KP Ninh Trung, P Ninh Sơn, TP Tây Ninh, Tỉnh Tây Ninh ",11.340919900742376,106.12212785504532
22,"VM+ HCM Lô NTR-01.02, CC Newton",vinmart+,"Lô NTR-01.02, CC Newton, 38 Trương Quốc Dung, P.8, Q.Phú Nhuận, TP.HCM",10.798238017444612,106.67273708604051
23,"VM+ NTN TBD 5-(6), TD 117 và 118",vinmart+,"TBD 5-(6), TD 117 và 118, Phường Đài Sơn, TP Phan Rang-Tháp Chàm, Tỉnh Ninh Thuận (09 Nguyễn Văn Cừ)",11.578378951936786,108.99457522652818
24,VM+ DNG 02 Tôn Thất Đạm,vinmart+,"02 Tôn Thất Đạm, Phường Xuân Hà, Thanh Khê, Đà Nẵng",16.07241175905657,108.19991447947693
25,VM+ 186 -188 Nguyễn Hùng Sơn,vinmart+,"186 -188 Nguyễn Hùng Sơn, KP 2, P Vĩnh Thanh Vân, Rạch Giá, Tỉnh Kiên Giang",10.009447924158687,105.08309775016977
26,VM+HCM A1-03-08 CC City Gate Towers,vinmart+,"Căn A1-03-08 Tầng 3, block A1  thuộc Cao ốc City Gate Towers Phường 16, Quận 8, HCM",10.727903985294137,106.6246316673584
27,"VM+ KTM TĐ 67&68, TBĐ 43, Duy Tân",vinmart+,"TĐ 67&68, TBĐ 43, Duy Tân, Phường Duy Tân, TP Kon Tum, Tỉnh Kon Tum",14.377083422474096,108.01920869372559
28,VM+HCM SH11-SH 12 Luxgarden,vinmart+,"SH11 - SH12 tầng 001 tháp (block)B, Dự án chung cư kết hợp Thương mại Dịch vụ số 370 Nguyễn Văn Quỳ, phường Phú Thuận, quận 7, tp HCM",10.739973556008222,106.73541896961405
29,VM+ PYN 399-401 Nguyễn Tất Thành,vinmart+,"399 Nguyễn Tất Thành, phường 9, TP Tuy Hòa, Phú Yên",13.105768389787595,109.28774335406496
30,VM+ PYN 363 Trường Chinh,vinmart+,"363 Trường Chinh, phường 7, TP Tuy Hòa, Phú Yên",13.101700933609516,109.3114701750107
31,VM+ HCM 309 Nguyễn Thị Rành,vinmart+,"309 Nguyễn Thị Rành, Ấp Xóm Mới, Trung Lập Hạ, Củ Chi, TPHCM",11.008131226165926,106.47140108965112
32,VM+ HCM 32 Tân Thới Nhất 21,vinmart+,"32 Tân Thới Nhất 21, Phường Tân Thới Nhất, Quận 12, TPHCM",10.823024394411364,106.62227400563431
33,VM+ TNH 363 Châu Văn Liêm,vinmart+,"363 đường Châu Văn Liêm, ấp Hiệp Long, xã Hiệp Tân, huyện Hòa Thành, tỉnh Tây Ninh.  ",11.29433379701257,106.11491539500427
34,VM+ QNM 118 Lý Thường Kiệt,vinmart+,"118 Lý Thường Kiệt, Phường Sơn Phong, Hội An, Quảng Nam",15.881456053768929,108.3371041061707
35,VM+ VTU 28D1.28 KDT Chí Linh,vinmart+,28D1.28 KDT Chí Linh. Bà Rịa – Vũng Tàu,10.384791853511242,107.10786917231752
36,VM+ DLK 544-546 Nguyễn Văn Cừ,vinmart+,"544-546 Nguyễn Văn Cừ, Phường Tân Lập, TP Buôn Ma Thuột, Tỉnh Đăk Lăk",12.683888091966901,108.07715513728334
37,VM+ 141/5 Nguyễn Thái Học,vinmart+,"141/5 Nguyễn Thái Học, Phường Mỹ Bình, TP Long Xuyên, Tỉnh An Giang.",10.388758471338793,105.43747656963541
38,"VM+ BLU Thửa 93-65, TBĐ 32 Tỉnh Lộ 38",vinmart+,"Thửa 93-65, TBĐ 32 đường Tỉnh Lộ 38, Phường 5, TP Bạc Liêu, Tỉnh Bạc Liêu (56 Nguyễn Thị Minh Khai, Phường 5, TP Bạc Liêu, Tỉnh Bạc Liêu)",9.283640946048738,105.72821059249115
39,VM+ HCM 50-52 đường 50A,vinmart+,"50-52 đường 50A, phường Tân Tạo, Bình Tân, TP.HCM",10.752034250729618,106.59628200894987
40,VM+ DTP 291 Hùng Vương,vinmart+,"291 Hùng Vương, phường 1, TP Sa Đéc, tỉnh Đồng Tháp",10.292048132376443,105.7668075802155
41,VM+ CMU 127 Nguyễn Công Trứ,vinmart+,"127 Nguyễn Công Trứ, Phường 8, TP Cà Mau, Tỉnh Cà Mau",9.165572104780944,105.15087046645357
42,VM+ HCM 25 đường số 6,vinmart+,"25 đường số 6, Khu phố 2, Phường Hiệp Bình Chánh, Quận Thủ Đức, TP HCM.",10.830927782787356,106.71774991772844
43,"VM+ BTN TĐ 53, TBĐ 13, Trần Hưng Đạo",vinmart+,"226 Trần Hưng Đạo, phường Phú Thủy, thành phố Phan Thiết, tỉnh Bình Thuận (126 Trần Hưng Đạo)",10.934880016928101,108.10383507035448
44,VM+ BDG 23/1 Khu phố Tân Thắng,vinmart+,"23/1 Khu phố Tân Thắng, Phường Tân Bình, Dĩ An, Bình Dương",10.939865208047507,106.77259036324692
45,VM+ HCM 1042 Nguyễn Duy Trinh,vinmart+,"1042 Nguyễn Duy Trinh, Phường Long Trường, Quận 9, TPHCM",10.799381481653581,106.80924274943544
46,"VM+ HCM Thửa 926, TBĐ 7, Quận 12",vinmart+,"VM+ HCM Thửa 926, TBĐ số 7 (163 Nguyễn Thị Kiêu), Phường Thới An, Quận 12, TPHCM",10.876310265321374,106.65453025124742
47,VM+ DNG 245-247 Lê Thanh Nghị,vinmart+,"245-247 Lê Thanh Nghị, Quận Hải Châu, TP Đà Nẵng",16.03501836372017,108.21845122597887
48,"VM+ CMU Thửa 227, TBĐ 13 Phạm Hồng Thám",vinmart+,"Thửa 227, TBĐ 13 Phạm Hồng Thám(Số cũ: 69 Phạm Hồng Thám, Phường 4, TP Cà Mau, Tỉnh Cà Mau)",9.183800213839406,105.15099384806824
49,VM+ DNG 985 Ngô Quyền,vinmart+,"985 Ngô Quyền, P. An Hải Đông, Quận Sơn Trà, Tỉnh Đà Nẵng ",16.056800026324407,108.23597946189122
50,VM+ DNG 124 Nguyễn Đức Trung,vinmart+,"124 Nguyễn Đức Trung, Phường Thanh Khê Đông, Thanh Khê, Đà Nẵng",16.066572645321006,108.18829783223343
51,VM+ NTN 111 Lê Lợi,vinmart+,"111 Lê Lợi. Phường Kinh Dinh, TP Phan Rang-Tháp Chàm, Tỉnh Ninh Thuận",11.560129474114875,108.99268963359071
52,VM+ DNG 91 Châu Thị Vĩnh Tế,vinmart+,"91 Châu Thị Vĩnh Tế, Phường Mỹ An, Ngũ Hành Sơn, Đà Nẵng",16.05367340863516,108.2399786355324
53,VM+ CTO 100- 102 Nguyễn Tri Phương,vinmart+,"100- 102 Nguyễn Tri Phương, Ninh Kiều, Cần Thơ",10.040665766138368,105.7563312593552
54,VM+ DNG 60 Nguyễn Chánh,vinmart+,"60 Nguyễn Chánh, Phường Hòa Khánh Bắc, Liên Chiểu, Đà Nẵng",16.08333434613588,108.14975717089844
55,VM+HCM 702 Lũy Bán Bích,vinmart+,"702 Lũy Bán Bích, phường Tân Thành, quận Tân Phú, TP HCM",10.790302150546317,106.63742312215044
56,"VM+ HCM Lô D(CT4), Khu nhà ở Quân đội",vinmart+,"Kiôt tại Tầng 1, Nhà chung cư Lô D (CT4), Khu nhà ở Quân đội, 468 Phan Văn Trị, Phường 7, Gò Vấp, TPHCM",10.82894668635049,106.6845683100052
57,VM+ TVH 120 Trần Quốc Tuấn,vinmart+,"120 Trần Quốc Tuấn, phường 2, Thành phố Trà Vinh, tỉnh Trà Vinh",9.934446446145197,106.33871891520693
58,VM+ BTN 272 Thủ Khoa Huân,vinmart+,"272 Thủ Khoa Huân, phường Phú Thủy, thành phố Phan Thiết, tỉnh Bình Thuận",10.9329585694151,108.11497400535805
59,VM+ BLU 45/5 Trần Phú,vinmart+,"45/5 Trần Phú, Khóm 5, Phường 7, TP Bạc Liêu, Tỉnh Bạc Liêu",9.291215474878976,105.72145276687814
60,VM+TGG 42/4 Nguyễn Huỳnh Đức,vinmart+,"42/4 Nguyễn Huỳnh Đức, phường 8, Mỹ Tho, Tiền Giang",10.355524125978619,106.37494751237108
61,"VM+ HCM Nhà tại thửa 1178, TBĐ số 1",vinmart+,"Nhà tại thửa 1178, TBĐ số 1 (77/8B Nguyễn Hữu Cầu), Xã Tân Xuân (Trung Mỹ Tây cũ), Hóc Môn, TPHCM",10.86979360887728,106.6144124510117
62,"VM+ BTN TĐ 185, TBĐ 9 - 41Trương Văn Ly",vinmart+,"41 Trương Văn Ly và TĐ 185, TBĐ 9, Trương Văn Ly, phường Đức Long, thành phố Phan Thiết, tỉnh Bình Thuận",10.917940801866413,108.08659651301576
63,"VM+ HCM Căn 0.01-lô B, CC Thủ Thiêm Lô P",vinmart+,"Căn số 0.01 – tầng trệt – lô B, Chung cư Thủ Thiêm Lô P – Số 01 đường số 63, Phường Bình Trưng Đông, Quận 2",10.773032793849435,106.79600105667379
64,VM+HCM 03 Bis Cửu Long ,vinmart+,"3 Bis Cửu Long, Phường 02, Tân Bình, TP HCM",10.81092522033998,106.66658409856035
65,"VM+ BDG Tổ 6, Đường ĐT 746",vinmart+,"Tổ 6, Đường ĐT 746, KP Bình Hòa 2, P.Tân Phước Khánh,TX Tân Uyên, Bình Dương",10.9975430030067,106.70863845370485
66,VM+ VTU Đất trống Võ Văn Kiệt,vinmart+,"Đất trống Võ Văn Kiệt , P.Long Bình Tâm, Bà Rịa – Vũng Tàu",10.408366568774168,107.1514872553177
67,VM+ KTM 62C Nguyễn Huệ,vinmart+,"62C đường Nguyễn Huệ, Phường Thắng Lợi, Thị xã Kon Tum, Tỉnh Kon Tum (498 Nguyễn Huệ Phường Thống Nhất, Thành phố Kon Tum, Tỉnh Kon Tum)",14.345299871222828,108.00761618636324
68,VM+HCM 70 Lê Văn Thịnh ,vinmart+,"70 Lê Văn Thịnh, phường Bình Trưng Tây, quận 2, TP HCM",10.78347271091849,106.76189103148651
69,VM+ BDH 292-294 Trần Hưng Đạo,vinmart+,"292-294 Trần Hưng Đạo, Phường Trần Hưng Đạo, TP Quy Nhơn, Tỉnh Bình Định",13.777404155243216,109.22860869191362
70,VM+ DNI 170 Hoàng Minh Chánh,vinmart+,,10.93523290695884,106.80274912141041
71,"VM+ BTN TĐ 113&114, TBĐ 21, Nguyễn Hội ",vinmart+,"TĐ 113&114, TBĐ 21, Nguyễn Hội, Phường Phú Trinh, TP Phan Thiết, Tỉnh Bình Thuận",10.935670068653364,108.09725561164095
72,VM+ VTU 83 Nguyễn Cư Trinh,vinmart+,"83 Nguyễn Cư Trinh, thị xã Phú Mỹ, Tỉnh Bà Rịa – Vũng Tàu",10.605510402162599,107.05219724200441
73,VM+ CMU TĐ 173-325 TBĐ 05 Đoàn Thị Điểm,vinmart+,"Thửa 173-325 TBĐ 05-13 Đoàn Thị Điểm, Phường 7, TP Cà Mau, Tỉnh Cà Mau",9.150393656723528,105.16475894473268
74,VM+ HCM 107 đường số 1,vinmart+,"107 đường số 1, cư xá Chu Văn An, Phường 26, Quận Bình Thạnh, TPHCM",10.811340170157163,106.70622848890496
75,VM+ HCM 152 Hoàng Hoa Thám,vinmart+,"152 Hoàng Hoa Thám, Phường 12, Quận Tân Bình, TP.HCM",10.806616294830771,106.64801516555023
76,"VM+ BDG Ô2 C1,KP3",vinmart+,"Ô 2, C1, KP3, P.An Phú, TX Thuận An , Bình Dương",10.939503106391845,106.74644687197878
77,VM+ NTN 95 Trường Chinh,vinmart+,"95 Trường Chinh, Xã Văn Hải, TP Phan Rang-Tháp Chàm, Tỉnh Ninh Thuận ( TD 67, TBD 17-a  )",11.582541085138347,109.01133903287126
78,VM+ NTN 160-162 Thống Nhất,vinmart+,"160-162 Thống Nhất, Phường Phủ Hà, TP Phan Rang-Tháp Chàm, Tỉnh Ninh Thuận",11.57626107502518,108.99136194012834
79,VM+ LAN 218/2 Ấp Xóm Cống  ,vinmart+,"218/2 Ấp Xóm Cống, Thị trấn Bến Lức, Huyện Bến Lức, Tỉnh Long An (53 Phan Văn Mãng)",10.633359963843457,106.49185159228516
80,"VM+ BLU Thửa 368-199, TBĐ 53 Hộ Phòng",vinmart+,"Thửa 368-199, TBĐ 53 Khóm 2, Phường Hộ Phòng, TX Giá Rai, Tỉnh Bạc Liêu (46 -48 Khóm 2, Phường Hộ Phòng, TX Giá Rai, Tỉnh Bạc Liêu)",9.221439719819195,105.42034127734377
81,VM+ TVH 10 Phạm Hồng Thái,vinmart+,"10 Phạm Hồng Thái, khóm 3, phường 3, thành phố Trà Vinh, Tỉnh Trà Vinh",9.934652521408776,106.34392776511385
82,"VM+ HCM Nhà Tại Thửa 614, TBĐ 09",vinmart+,"Nhà tại thửa 614, TBĐ số 09, Khu phố 6, Phường Trung Mỹ Tây, Quận 12, TPHCM (107 Hà Đặc)",10.857027240320498,106.61615320466234
83,"VM+ HCM Nhà Tại Thửa 614, TBĐ 09",vinmart+,"Nhà tại thửa 614, TBĐ số 09, Khu phố 6, Phường Trung Mỹ Tây, Quận 12, TPHCM (107 Hà Đặc)",10.836661324319511,106.61014239371627
84,VM+ BPC Thửa 391 và 719,vinmart+,"Thửa 391 và 719, phường Tân Bình, Đồng Xoài, Bình Phước",11.520683418514738,106.8874023201295
85,VM+ HNI Cụm 6 Xã Sen Chiểu,vinmart+,"Cụm 6 Xã Sen Chiểu, Huyện Phúc Thọ, Hà Nội",21.140131443121078,105.5268678905793
86,VM+ HNI CT1 Vimeco Nguyễn Chánh,vinmart+,"Tầng 1 Tòa nhà CT1 Vimeco, phường Trung Hòa, quận Cầu Giấy, Hà Nội ",21.00873411253081,105.7945201637574
87,VM+ HNI Lô 03C Tòa L KĐTM HH2 Dương Nội,vinmart+,"Lô 03C, tầng 1 Tòa L, thuộc Dự án tòa K, L khu đô thị mới HH2 Dương Nội, Phường Dương Nội, Quận Hà Đông, Thành phố Hà Nội",20.960450897502845,105.74283936045843
88,VM+ HNI T1 KCH Tecco Skyville Tower,vinmart+,"Tầng 1 Khu căn hộ Tecco Skyville Tower, Ô đất HH, Khu đấu giá quyền sử dụng đất, Xã Tứ Hiệp, Huyện Thanh Trì, Thành phố Hà Nội",20.931914398194746,105.85067489169322
89,VM+ HNI UDIC Riverside 1,vinmart+,"Tầng 1, Tòa nhà UDIC Riverside 1, Ngõ 122 Vĩnh Tuy, Phường Vĩnh Tuy, Quận Hai Bà Trưng, Thành phố Hà Nội",21.001212173454785,105.875496053917
90,VM+ HPG BH 03-11 KĐT Xi Măng HP,vinmart+,"Số BH 03-11 KĐT Xi Măng Hải Phòng ( KĐT Vinhomes Imperia Hải Phòng), Phường Thượng Lý, Quận Hồng Bàng, Thành phố Hải Phòng",20.863176048032674,106.66209676287848
91,VM+ HNI Cụm 5 Xã Phụng Thượng,vinmart+,"Cụm 5, xã Phụng Thượng, huyện Phúc Thọ, Hà Nội.",21.094743669991797,105.58470704577644
92,VM+ HDG Số 70 Nguyễn Cừ,vinmart+,"Số 70 Nguyễn Cừ, Phường Tứ Minh, Thành phố Hải Dương, Tỉnh Hải Dương",20.932856349793845,106.28156640551764
93,VM+ BGG 61 Mỹ Độ,vinmart+,"61 Mỹ Độ, Phường Mỹ Độ, Thành phố Bắc Giang, Tỉnh Bắc Giang",21.27558642515137,106.18349947951515
94,VM+ HNI 25 Phúc Tân,vinmart+,"Số 25 phố Phúc Tân, phường Phúc Tân, quận Hoàn Kiếm, thành phố Hà Nội.",21.035378355935908,105.85560479186256
95,VM+ SLA 223 Chu Văn Thịnh,vinmart+,"Số 223 Đường Chu Văn Thịnh, Phường Tô Hiệu, Thành phố Sơn La, Tỉnh Sơn La",21.333606170986453,103.91121783278663
96,VM+ HNI Thôn Cổ Dương-Tiên Dương,vinmart+,"Thôn Cổ Dương, Xã Tiên Dương, Huyện Đông Anh, Thành phố Hà Nội",21.15583127686119,105.82833745501715
97,"VM+ HNI 254 Phố Huyện, TT Quốc Oai",vinmart+,"254 Phố Huyện, TT Quốc Oai, Huyện Quốc Oai, Tp Hà Nội",20.99187182136856,105.64248719237526
98,VM+ HNI Tổ 10 P.Thạch Bàn,vinmart+,"Tổ 10, Phường Thạch Bàn, Quận Long Biên, Thành phố Hà Nội",21.021733853392288,105.91352441333015
99,VM+ HNI 124 Thanh Ấm,vinmart+,"124 Thanh Ấm, Thị trấn Vân Đình, Huyện Ứng Hòa, Thành phố Hà Nội",20.724962887939505,105.77257969401558
100,VM+ HPG Thôn Phố X.Quảng Thanh,vinmart+,"Thôn Phố, Xã Quảng Thanh, Huyện Thủy Nguyên, Thành phố Hải Phòng",20.96786468709961,106.60791614077766
101,VM+ QNH Tổ 6 Khu 7 P Mông Dương,vinmart+,"Tổ 6 Khu 7, Phường Mông Dương, Thành phố Cẩm Phả, Tỉnh Quảng Ninh",21.065331791381084,107.34026649020392
102,VM+ HNI Thôn 3 Xã Phượng Cách,vinmart+,"Thôn 3 Xã Phượng Cách, Huyện Quốc Oai, TP Hà Nội",21.010837383179656,105.65987327120979
103,VM+ SLA 381 Chu Văn Thịnh,vinmart+,"Số 381 Chu Văn Thịnh, Phường Chiềng Lề, Thành phố Sơn La, Tỉnh Sơn La",21.337178866229838,103.91001083872992
104,VM+ SLA 17 Đường Lò Văn Giá,vinmart+,"Số 17 Đường Lò Văn Giá, Phường Chiềng Lề, Thành phố Sơn La, Tỉnh Sơn La",21.3431398269324,103.90957095645149
105,VM+ SLA 186 Lê Đức Thọ,vinmart+,"Số 186 đường Lê Đức Thọ, Phường Quyết Thắng, Thành phố Sơn La, Tỉnh Sơn La",21.328449344149753,103.9287192466088
106,VM+ HNI 106 Dốc Chợ Thành Công,vinmart+,"106 Dốc Chợ Thành Công, Phường Thành Công, Quận Ba Đình, Hà Nội",21.02270528312687,105.81484594367224
107,VM+ HTH 87 Phan Đình Giót,vinmart+,"87 Phan Đình Giót, Phường Nam Hà, TP Hà Tĩnh, Tỉnh Hà Tĩnh",18.33531230357306,105.90051569960792
108,VM+ THA 495 Nguyễn Trãi,vinmart+,"495 Nguyễn Trãi, Phường Phú Sơn, TP Thanh Hóa, Tỉnh Thanh Hóa",19.806543187406334,105.76152899287422
109,VM+ HNI Thôn An Duyên,vinmart+,"Thôn An Duyên, Xã Tô Hiệu, Huyện Thường Tín, Thành phố Hà Nội",20.8045762934512,105.88896074317176
110,VM+ HNI Thôn Thiết Úng,vinmart+,"Thôn Thiết Úng, Xã Vân Hà, Huyện Đông Anh, Thành phố Hà Nội",21.13841026390628,105.9116790535279
111,VM+ HNI 17A ngõ 9 Nguyễn Tri Phương,vinmart+,"17A, Ngõ 9 Nguyễn Tri Phương , phường Điện Biên, quận Ba Đình, TP Hà Nội",21.03250059646413,105.84233456276138
112,VM+ HYN Nhà A CC Phúc Hưng II,vinmart+,"Tầng 1, nhà A, chung cư Phúc Hưng II, phường Bần Yên Nhân, Thị xã Mỹ Hào, tỉnh Hưng Yên",20.940812598218123,106.06014468692024
113,VM+ HNM Thôn 1 Xã Phù Vân,vinmart+,"Thôn 1, Xã Phù Vân, TP. Phủ Lý, Tỉnh Hà Nam",20.54654379681297,105.8968732597657
114,VM+ TNN TNG Village Thái Nguyên,vinmart+,"Vị trí Shophouse 05 và shophouse 06, Tầng 1, dự án Nhà ở thương mại TNG Village, Phường Phan Đình Phùng, thành phố Thái Nguyên, tỉnh Thái Nguyên",21.586816170504726,105.83919503710943
115,VM+ HNI 53 Hậu Dưỡng,vinmart+,"53 Hậu Dưỡng, Xã Kim Chung, Huyện Đông Anh, Thành phố Hà Nội",21.122928759484992,105.77074506304942
116,VM+ HNI CT1A Hateco Apolo,vinmart+,"Tầng 1, tòa nhà CT1A Hateco Apolo, phường Phương Canh, Quận Nam Từ Liêm, Hà Nội",21.04796023377688,105.73417046092231
117,VM+ HNI Xóm 6 Thôn 3 Xã Thạch Thán,vinmart+," Xóm 6,Thôn 3 Xã Thạch Thán, Huyện Quốc Oai, TP Hà Nội",20.99024408628495,105.63701548598488
118,VM+ QNH 15 Lý Bôn,vinmart+,"15 Lý Bôn, Phường Cẩm Đông, Thành phố Cẩm Phả, Tỉnh Quảng Ninh",21.010140866010367,107.29390552124471
119,VM+ QNH Số 463 Tổ 66 Khu Diêm Thủy,vinmart+,"Số 463, Tổ 66, Khu Diêm Thủy, Phường Cẩm Đông, Thành phố Cẩm Phả, Tỉnh Quảng Ninh",21.005183524089166,107.29722239993292
120,VM+ TBH 16-18 Bùi Thị Xuân,vinmart+,"16-18 Bùi Thị Xuân, KĐT Petro, Phường Quang Trung, TP Thái Bình, Thái Bình",20.435209913613086,106.32604815982063
121,VM+ TBH 106 Bùi Sỹ Tiêm,vinmart+,"Số 106 Bùi Sỹ Tiêm, Tổ 15 Phường Tiền Phong, Thành Phố Thái Bình, Tỉnh Thái Bình ",20.45658247638437,106.33708813212593
122,VM+ HNI Số 79 ngõ 94 Thượng Thanh,vinmart+,"Số 79 ngõ 94 Thượng Thanh, Tổ 14 Phường Thượng Thanh, Quận Long Biên, Thành phố Hà Nội",21.060009151351995,105.8878315331765
123,VM+ HNI CT1B Hateco Apolo,vinmart+,"Tầng 1, tòa nhà CT1B Hateco Apolo, phường Phương Canh, Quận Nam Từ Liêm, Hà Nội",21.047887639440816,105.73417850754936
124,VM+ HNI Kiot 03A+03B+04 CT6 KĐTM Tứ Hiệp,vinmart+,"Kiot 03A+03B+04, Tầng 1 Tòa nhà chung cư CT6, Ô đất N04 Khu Đô thị mới Tứ Hiệp, Xã Tứ Hiệp, Huyện Thanh Trì, Thành phố Hà Nội",20.948868620489872,105.85370042346202
125,VM+ TTH 162 Bùi Thị Xuân,vinmart+,"162 Bùi Thị Xuân, Phường Phường Đúc, TP Huế, Thừa Thiên Huế",16.454672005295734,107.56824889205177
126,VM+ HNI Thôn 4 Xã Cát Quế,vinmart+,"Thôn 4 Xã Cát Quế, Huyện Hoài Đức, Hà Nội",21.04148167574125,105.67776896975715
127,VM+ HNI 33 Võng Thị,vinmart+,"33 Võng Thị, Phường Bưởi, Quận Tây Hồ, TP Hà Nội",21.0514134303568,105.81046723745544
128,VM+ HNI Đội 2 Thôn Xuân Bách,vinmart+,"Đội 2, thôn Xuân Bách, xã Quang Tiến, huyện Sóc Sơn, thành phố Hà Nội",21.239815586915807,105.81102111361702
129,VM+ HDG Số 111 Chi Lăng,vinmart+,"Số 111 Chi Lăng, Phường Nguyễn Trãi, Thành phố Hải Dương, Tỉnh Hải Dương",20.942971935274066,106.32808127425392
130,VM+ HDG Số 1 Đồng Niên,vinmart+,"Số 1, Đồng Niên, Phường Việt Hòa, Thành phố Hải Dương, Tỉnh Hải Dương",20.942741473871028,106.30238571189123
131,VM+ HNI Đội 7 Thôn Đỗ Xá,vinmart+,"Đội 7, Thôn Đỗ Xá, Xã Vạn Điểm, Huyện Thường Tín, Thành phố Hà Nội",20.77580955576595,105.901250624878
132,VM+ HNI Đội 7 Thôn Đỗ Xá,vinmart+,"Đội 7, Thôn Đỗ Xá, Xã Vạn Điểm, Huyện Thường Tín, Thành phố Hà Nội",20.771666613726822,105.9013579132386
133,VM+ HNI Thôn Thuận Tiến,vinmart+,"Thôn Thuận Tiến, Xã Dương Xá, Huyện Gia Lâm, Thành phố Hà Nội",20.99994011698432,105.96978642962654
134,VM+ HNI Ngã tư Chợ Ngọc Chi,vinmart+,"Thôn Ngọc Chi ( Ngã tư Chợ Ngọc Chi), Xã Vĩnh Ngọc, Huyện Đông Anh, Thành phố Hà Nội ",21.116138203810305,105.82816042922218
135,VM+ HPG 102-104 Tô Vũ/ 193 Văn Cao,vinmart+,"Số 102-104 Tô Vũ/ 193 Văn Cao, Phường Đằng Lâm, Quận Hải An, Thành phố Hải Phòng",20.83678190767585,106.7035583498307
136,VM+ HPG Số 4 Đình Đoài,vinmart+,"Số 4 Đình Đoài, TDP Đình Công, Phường Vạn Sơn, Quận Đồ Sơn, Thành phố Hải Phòng",20.7164934720115,106.7838690521546
137,"VM+ HNI Thôn Đồng Lư, Quốc Oai",vinmart+,"Thôn Đồng Lư, xã Đồng Quang,  huyện Quốc Oai, TP Hà Nội",20.97553857398531,105.64770677111824
138,VM+ HNI KDC Bắc Thăng Long,vinmart+,"Khu dân cư Bắc Thăng Long, Xã Hải Bối, Huyện Đông Anh, Thành phố Hà Nội",21.114081459811157,105.78945615313728
139,VM+ HNI 105 Thành Công,vinmart+,"105 Thành Công, Phường Thành Công, Quận Ba Đình, Hà Nội",21.022875533047017,105.81402786992271
140,VM+ HNI Khu đấu giá Tổ 1 TT Sóc Sơn,vinmart+,"Khu đấu giá Tổ 1 Thị trấn Sóc Sơn, Huyện Sóc Sơn, TP Hà Nội",21.253725001000067,105.85058906100471
141,VM+ NAN 80 Lê Hồng Phong,vinmart+,"80 Lê Hồng Phong, Phường Hưng Bình, TP Vinh, Nghệ An",18.676071841314627,105.68473734877784
142,VM+ NAN 25 Nguyễn Trung Ngạn,vinmart+,"25 Nguyễn Trung Ngạn, Khối 3, Phường Trường Thi, TP Vinh, Tỉnh Nghệ An",18.674740365257914,105.68945267222605
143,VM+ HNI 174 – 176 Hạ Hội,vinmart+,"174 – 176 Hạ Hội, Xã Tân Lập, huyện Đan Phượng, Thành Phố Hà Nội",21.083271927718204,105.7139251472779
144,VM+ NDH 274 Trần Huy Liệu,vinmart+," 274 Trần Huy Liệu, Phường Mỹ Xá, TP Nam Định, Tỉnh Nam Định",20.417534590741997,106.15994431994636
145,VM+ NDH 53 Hoàng Văn Thụ,vinmart+,"Số 53 Tổ 5, Đường Hoàng Văn Thụ, Phường Phan Đình Phùng, TP Nam Định, Tỉnh Nam Định",20.424462191904567,106.17948153041084
146,VM+ HPG 273 Tô Hiệu,vinmart+,"273 Tô Hiệu, Phường Hồ Nam, Quận Lê Chân, Thành phố Hải Phòng",20.850270318092296,106.67619713566978
147,VM+ HNI Xóm Cầu Thôn Hòa Mỹ,vinmart+,"Xóm Cầu, Thôn Hòa Mỹ, Xã Hồng Minh, Huyện Phú Xuyên, Thành phố Hà Nội",20.791637958185692,105.82608439944464
148,VM+ HNI 94 Phố Kim Bài,vinmart+,"Số 94 Phố Kim Bài, Thị trấn Kim Bài, Huyện Thanh Oai, Thành phố Hà Nội",20.85360150105561,105.7684437277146
149,VM+ TTH 308 Phan Chu Trinh,vinmart+,"308 Phan Chu Trinh, Phường An Cựu, TP Huế, Thừa Thiên Huế",16.45524306766465,107.59621896765907
150,VM+ BGG 223 Hoàng Văn Thụ,vinmart+,"223 Hoàng Văn Thụ, Phường Xương Giang, Thành phố Bắc Giang, Tỉnh Bắc Giang",21.283444346302947,106.21161975882728
151,VM+ BGG 134 Thánh Thiên,vinmart+,"Số nhà 134, Đường Thánh Thiên, Phường Lê Lợi, Thành phố Bắc Giang, Tỉnh Bắc Giang",21.270507545456734,106.19747110627372
152,VM+ HNI 155 Xóm Đậu,vinmart+,"Số 155 Xóm Đậu, Thôn Vỹ, Xã Cao Viên, Huyện Thanh Oai, Thành phố Hà Nội",20.904555135546012,105.74435212634285
153,VM+ HNI Khu Ao ông Sáu,vinmart+,"Khu Ao ông Sáu, Xã Trung Mầu, Huyện Gia Lâm, Thành phố Hà Nội",21.058828958726572,105.98795571349342
154,VM+ HNI 202 Đường 422 Tân Lập,vinmart+,"202 Đường 422, Tân Lập, Đan Phượng, Hà Nội",21.065534531017114,105.70750393889624
155,VM+ HNI 273 Vũ Tông Phan,vinmart+,"273 Vũ Tông Phan, Phường Khương Trung, Quận Thanh Xuân, Hà Nội",20.994163141455946,105.81486203692634
156,"VM+ Khu Phố, TT Liên Quan",vinmart+,"Khu phố, thị trấn Liên Quan, huyện Thạch Thất, Hà Nội",21.058188171535075,105.57492771170814
157,VM+ HBH Tổ 8 Phường Hữu Nghị,vinmart+,"Tổ 8,  Phường Hữu Nghị, Thành phố Hòa Bình, Tỉnh Hòa Bình",20.84210121333931,105.32863118670662
158,VM+ HBH Tổ 09 Phường Tân Thịnh,vinmart+,"Tổ 09 Phường Tân Thịnh, Thành phố Hòa Bình, Tỉnh Hòa Bình",20.82896554639328,105.34347989581306
159,VM+ HBH 665 Cù Chính Lan,vinmart+,"665 Cù Chính Lan, Phường Phương Lâm, Thành phố Hòa Bình, Tỉnh Hòa Bình",20.817859499012442,105.33735373042305
160,VM+ HBH 444 Cù Chính Lan,vinmart+,"444 Cù Chính Lan, Phường Đồng Tiến, Thành phố Hòa Bình, Tỉnh Hòa Bình",20.827501500321667,105.35426237605292
161,VM+ HDG 16 Nguyễn Thị Định,vinmart+,"Số 16 Nguyễn Thị Định, Khu 11, Phường Hải Tân, Thành phố Hải Dương, Tỉnh Hải Dương",20.934439616794986,106.33963086627205
162,VM+ HDG 90 Bình Lộc,vinmart+,"Số 90 Bình Lộc, Khu 10, Phường Tân Bình, Thành phố Hải Dương, Tỉnh Hải Dương",20.924107996908344,106.31473996661384
163,"VM+ QNH Tổ 7, Khu Minh Tiến A",vinmart+,"Tổ 7, Khu Minh Tiến A, Phường Cẩm Bình, Thành phố Cẩm Phả, Tỉnh Quảng Ninh",21.008421123292504,107.27461942456443
164,VM+ HPG 196 Tổ 3 TT An Dương,vinmart+,"196 Tổ 3, Thị trấn An Dương, Huyện An Dương, Thành phố Hải Phòng",20.864018177966692,106.61394574664314
165,VM+ THA Lô 01-05 MBQH 1087 Ngọc Trạo,vinmart+,"Lô 01-05 MBQH số 1087 Phường Ngọc Trạo, TP Thanh Hóa, Thanh Hóa",19.793591878202548,105.7761523964234
166,VM+ HNI Số 9 Nam Dư P Lĩnh Nam,vinmart+,"Số 9 Nam Dư, Phường Lĩnh Nam, Quận Hoàng Mai, Thành phố Hà Nội",20.987709792655448,105.88851013205726
167,VM+ HGG 178 Đường Nguyễn Trãi,vinmart+,"178 Đường Nguyễn Trãi, Tổ 15, Phường Nguyễn Trãi, Thành phố Hà Giang, Tỉnh Hà Giang",22.81362518569961,104.98114856152756
168,VM+ HGG 43-45 Đường 20-8,vinmart+,"Số 43-45 Đường 20-8, Tổ 7, Phường Nguyễn Trãi, Thành phố Hà Giang, Tỉnh Hà Giang",22.827545372905067,104.98065211795051
169,VM+ BNH Thôn Dương Húc,vinmart+,"Thôn Dương Húc, Xã Đại Đồng, Huyện Tiên Du, Tỉnh Bắc Ninh",21.095164083509058,105.98830440066536
170,VM+ SLA 514D Trần Đăng Ninh,vinmart+,"Số 514D đường Trần Đăng Ninh, Phường Quyết Tâm, Thành phố Sơn La, Tỉnh Sơn La",21.303229751722807,103.93844761870581
171,VM+ SLA 437A Trần Đăng Ninh,vinmart+,"Số 437A Trần Đăng Ninh, Phường Quyết Tâm, Thành phố Sơn La, Tỉnh Sơn La",21.30532134600241,103.93352844737251
172,VM+ HNI 158 Tiểu khu Phú Thịnh,vinmart+,"Số 158 Tiểu khu Phú Thịnh, Thị trấn Phú Minh, Huyện Phú Xuyên, Thành phố Hà Nội",20.783352829059922,105.91255881808479
173,VM+ HNI Tổ dân phố số 17,vinmart+,"Tổ dân phố số 17, Phường Thanh Trì, Quận Hoàng Mai, Thành phố Hà Nội",20.995052114098755,105.88627316973884
174,VM+ HNI Thôn Vài Xã Hợp Thanh,vinmart+,"Thôn Vài, Xã Hợp Thanh, Huyện Mỹ Đức, Thành phố Hà Nội",20.666590577185744,105.70482709429942
175,"VM+ HNI Chợ Cầu Xây, Sóc Sơn",vinmart+,"Chợ Cầu Xây, thôn Thanh Vân, xã Tân Dân, huyện Sóc Sơn , thành  phố Hà Nội",21.25229512178711,105.7416055443116
176,VM+ HNI BT1.SH-A(07) KĐTM Đặng Xá,vinmart+,"BT1.SH-A(07), Khu đô thị mới Đặng Xá, Xã Đặng Xá, Huyện Gia Lâm, Thành phố Hà Nội",21.016165536099454,105.95222332499702
177,VM+ HPG 29B Trung Hành,vinmart+,"Số 29B Trung Hành, Phường Đằng Lâm, Quận Hải An, Thành phố Hải Phòng",20.83545831890931,106.71386339686592
178,VM+ HNI 18 ngách 1 ngõ 119 Hồ Đắc Di,vinmart+,"Số 18 ngách 1 ngõ 119 Hồ Đắc Di, phường Nam Đồng, quận Đống Đa, Hà Nội",21.011828914772018,105.82815506480415
179,VM+ HNI Thôn Tằng My,vinmart+,"Thôn Tằng My, Xã Nam Hồng, Huyện Đông Anh, Thành phố Hà Nội",21.16579665562209,105.79052903674324
180,VM+ HNI Thôn 5 Cộng Hòa,vinmart+,"Thôn 5 Xã Cộng Hòa, Huyện Quốc Oai, Tp Hà Nội",20.97269347127716,105.6758806946107
181,VM+ NDH 219 Trường Chinh,vinmart+,"219 Trường Chinh, Phường Quang Trung, TP Nam Định, Tỉnh Nam Định",20.43224405982408,106.17314078829963
182,VM+ HPG 55 Đoàn Kết,vinmart+,"55 Đoàn Kết, Phường Đằng Hải, Quận Hải An, Thành phố Hải Phòng",20.84174024849531,106.71707131884772
183,VM+ HPG Xóm 9 Xã Cao Nhân,vinmart+,"Xóm 9, Xã Cao Nhân, Huyện Thủy Nguyên, Thành phố Hải Phòng",20.94101300204042,106.62302234194954
184,VM+ HPG 309 Trường Sơn,vinmart+,"309 Trường Sơn, Huyện An Lão, Thành phố Hải Phòng",20.860724821554648,106.71317675135809
185,VM+ QNH Khu 8 TT Cái Rồng,vinmart+,"Khu 8, Thị Trấn Cái Rồng, Huyện Vân Đồn, Tỉnh Quảng Ninh",21.066493160368694,107.42362954638679
186,VM+ QNH Tổ 52 khu 5 P Cửa Ông,vinmart+,"Tổ 52 khu 5, Phường Cửa Ông, Thành phố Cẩm Phả, Quảng Ninh",21.033190312476137,107.3598144295045
187,VM+ QNH 125 Lý Thường Kiệt,vinmart+,"125 Lý Thường Kiệt, Phường Cửa Ông, Thành phố Cẩm Phả, Tỉnh Quảng Ninh",21.012985693299814,107.35857793114859
188,VM+ HBH 253 Phùng Hưng,vinmart+,"253 Phùng Hưng, Phường Hữu Nghị, Thành phố Hòa Bình, Tỉnh Hòa Bình",20.84129906806583,105.33730545066078
189,VM+ NBH 927-929 Trần Hưng Đạo,vinmart+,"927-929 Trần Hưng Đạo, Phường Vân Giang, TP Ninh Bình, Tỉnh Ninh Bình",20.25617129003642,105.97229697726448
190,VM+ NBH 73 Ngô Thì Nhậm,vinmart+,"73 Ngô Thì Nhậm, Phường Trung Sơn, TP Tam Điệp, Ninh Bình",20.153118803795106,105.91992952845771
191,VM+ HNI Tầng 1 Tòa C2 Xuân Đỉnh,vinmart+,"Tầng 1, tòa nhà C2 thuộc Dự án Khu nhà ở Xuân Đỉnh, phường Xuân Đỉnh, Quận Bắc Từ Liêm, Hà Nội",21.07075811005818,105.79153754733284
192,VM+ HNI Kiot TM02 Số 50 ngõ 28 Xuân La,vinmart+,"Kiot TM02 - Tầng 1 của Dự án Khu nhà ở gia đình cán bộ quân đội Dự án 4-678, số 50 ngõ 28 đường Xuân La, Phường Xuân La, Quận Tây Hồ, Hà Nội",21.0648111747536,105.80778100512705
193,VM+ HNI QL3 Phố Lộc Hà,vinmart+,"QL3 Phố Lộc Hà, Xã Mai Lâm, Huyện Đông Anh, Hà Nội",21.100589313076167,105.88356950305186
194,VM+ HNI 114 Ngõ Văn Chương 2,vinmart+,"114 Ngõ Văn Chương 2, Phường Văn Chương, Quận Đống Đa, Hà Nội",21.02067979489653,105.83752402089316
195,"VM+ HNI Xóm Dền, Hoài Đức",vinmart+,"Xóm Dền, Xã Di Trạch, Huyện Hoài Đức, TP Hà Nội",21.044806102398187,105.72044827960212
196,VM+ HNI Thôn 5 Cộng Hòa,vinmart+,"Thôn 5 Xã Cộng Hòa, Huyện Quốc Oai, Tp Hà Nội",20.972683453214184,105.67590215228279
197,VM+ NDH 219 Trường Chinh,vinmart+,"219 Trường Chinh, Phường Quang Trung, TP Nam Định, Tỉnh Nam Định",20.43222143868558,106.17308982632835
198,VM+ QNH Khu 8 TT Cái Rồng,vinmart+,"Khu 8, Thị Trấn Cái Rồng, Huyện Vân Đồn, Tỉnh Quảng Ninh",21.065111530722643,107.4236080887147
199,VM+ QNH Tổ 52 khu 5 P Cửa Ông,vinmart+,"Tổ 52 khu 5, Phường Cửa Ông, Thành phố Cẩm Phả, Quảng Ninh",21.031187498535107,107.36362316630562
200,VM+ QNH 125 Lý Thường Kiệt,vinmart+,"125 Lý Thường Kiệt, Phường Cửa Ông, Thành phố Cẩm Phả, Tỉnh Quảng Ninh",21.01307332767122,107.35857256673056
201,VM+ STG 176 Lê Hồng Phong,vinmart+,"VM+ STG 176 Lê Hồng Phong, khóm 4, P3, TP Sóc Trăng, tỉnh Sóc Trăng",9.592697583726938,105.97460367701729
202,VM+ PYN 101-103 Phan Đình Phùng,vinmart+,"101-103 Phan Đình Phùng, phường 1, TP Tuy Hòa, tỉnh Phú Yên",13.086514647733749,109.30113294146736
203,VM+ BPC 137 Điểu Ông,vinmart+,"137 Điểu Ông, KP Tân Bình, P Tân Bình, Đồng Xoài, Bình Phước",11.535842292213427,106.89655401728828
204,"VM+ HUG Thửa 125, TBĐ 07 đường 30/4",vinmart+,"Thửa 125, TBĐ 07 Khu vực 3, Phường 5, TP Vị Thanh, Tỉnh Hậu Giang (Số cũ: 17 đường 30/4, Khu vực 3, Phường V, TP Vị Thanh, Tỉnh Hậu Giang)",9.784135625812905,105.47118523143013
205,VM+HCM 532 Phạm Văn Chiêu,vinmart+,"VM+ HCM 532 Phạm Văn Chiêu, phường 16, Q.Gò Vấp , HCM",10.851633670879076,106.65853478930671
206,VM+ HCM 35A đường TX 21,vinmart+,"35A đường TX 21, khu phố 1, Phường Thạnh Xuân, Quận 12, TPHCM",10.8678601838284,106.67673089526373
207,VM+ HNI 12 ngõ 4D Đặng Văn Ngữ,vinmart+,"Số 12 ngõ 4D Đặng Văn Ngữ, phường Trung Tự, quận Đống Đa, TP Hà Nội",21.009107194844987,105.83301522753914
208,VM+ HNI 33-35 Ngõ Quan Thổ 1,vinmart+,"33-35 Ngõ Quan Thổ 1, Phường Tôn Đức Thức, Quận Đống Đa, TP Hà Nội.",21.021319491618364,105.83007016204078
209,VM+ HNI 48 Bích Câu,vinmart+,"48 Bích Câu, Phường Quốc Tử Giám, Quận Đống Đa, Tp.Hà Nội",21.027271919528264,105.8321622850724
210,VM+ HNI 68 Trịnh Đình Cửu,vinmart+,"68 Trịnh Đình Cửu, Phường Định Công, Quận Hoàng Mai, TP Hà Nội",20.980477303237627,105.83510735057078
211,VM+ HNI Tòa B1 CC Ruby CT3 Phúc Lợi,vinmart+,"Lô góc tầng 1, Tòa B1, Chung cư Ruby CT3 Phúc Lợi, Quận Long Biên, Thành phố Hà Nội",21.03645734494235,105.93309112809379
212,VM+ HNI Số 110 ngõ 553 Đường Giải Phóng,vinmart+,"Số 110 ngõ 553 Đường Giải Phóng, Phường Giáp Bát, Quận Hoàng Mai, Thành phố Hà Nội",20.990068790679235,105.84262826464851
213,VM+ HNI 75 Tam Trinh ,vinmart+,"75 Tam Trinh, phường Mai Động, quận Hoàng Mai, Hà Nội",20.99565811495084,105.86201527140815
214,VM+ HNI Ngã tư Cổ Đông,vinmart+,"Ngã tư Cổ Đông, Xóm 10 ,Thôn Đoàn Kết, Xã Cổ Đông, Sơn Tây, Hà Nội. ",21.048017808570002,105.50536193869787
215,VM+ STG 491 Lê Hồng Phong,vinmart+,"491 Lê Hồng Phong, khóm 5, phường 3, TP Sóc Trăng, tỉnh Sóc Trăng",9.58702200048288,105.97581067107402
216,VM+ DLK 168-170 Hà Huy Tập,vinmart+,"168-170 Hà Huy Tập, Phường Tân Lợi, TP Buôn Ma Thuột, Tỉnh Đăk Lăk",12.702989673780294,108.06107261203009
217,"VM+ BDH TD 02 và 03, TBD 27",vinmart+,"613 Nguyễn Thái Học, Phường Nguyễn Văn Cừ, TP Quy Nhơn, Tỉnh Bình Định",13.757057929093762,109.20970716498572
218,"VM+ HGG Thửa 62-63, TBĐ 04 Lê Hồng Phong",vinmart+,"Thửa 62 và 63, TBĐ 04 Khu vực 4, Phường 4, TX Vị Thanh, Tỉnh Hậu Giang (Số cũ: 37 Lê Hồng Phong, Phường 4, TP Vị Thanh, Tỉnh Hậu Giang)",9.78933475216294,105.46724506638724
219,VM+ HGG 35-37 đường 30/04,vinmart+,"35-37 đường 30/04, Khu vực 1, Phường 1, TP Vị Thanh, Tỉnh Hậu Giang",9.777961061998123,105.46674349330145
220,"VM+ HGG Thửa 289, TBĐ 09 Nguyễn Thái Học",vinmart+,"Thửa 289, TBĐ 09 Nguyễn Thái Học, Phường 1, TX Vị Thanh, Tỉnh Hậu Giang (98 Nguyễn Thái Học, Phường 1, TP Vị Thanh, Tỉnh Hậu Giang)",9.778537288987607,105.4656867029496
221,VM+ HGG 174-191 TBĐ 12 Nguyễn Công Trứ,vinmart+,"Thửa 174 và 191, TBĐ 12 Khu vực 3, Phường 1, TP Vị Thanh, Tỉnh Hậu Giang (Số cũ: 124 Nguyễn Công Trứ, Khu vực 3, Phường 1, TP Vị Thanh, Tỉnh Hậu Giang",9.779917057811268,105.46465673468788
222,VM+ DNG thửa 104 TBĐ B1-95 Phạm Xuân Ẩn,vinmart+,"VM+ DNG Nhà tại thửa 104, TBĐ B1-95, KĐTSTVS Hòa Xuân (Phạm Xuân Ẩn), Phường Hòa Xuân , Quận Cẩm Lệ, Đà Nẵng",16.010117332692346,108.22206952594
223,VM+ QNM 203 Nguyễn Duy Hiệu ,vinmart+,"Khối Phong Niên, Phường Sơn Phong, Hội An, Quảng Nam (203 Nguyễn Duy Hiệu)",15.879464416009858,108.34246852420051
224,"VM+ BTN TĐ 499, TBĐ 7, Hoàng Văn Thụ ",vinmart+,"TĐ 499, TBĐ 7, Hoàng Văn Thụ, Phường Lạc Đạo, TP Phan Thiết, Tỉnh Bình Thuận",10.924048195601182,108.10045816920479
225,"VM+ DNG Thửa 1,2 TBĐ B1-21 QTT",vinmart+,"VM+ DNG Nhà tại thửa 1,2, TBĐ số B1-21, KĐT sinh thái ven sông Hòa Xuân-GĐ2 (Quách Thị Trang), Phường Hòa Xuân, Cẩm Lệ, Đà Nẵng",16.005022795497407,108.2235608341523
226,VM+ DNG thửa 17 TBĐ 45 KDC Phong Bắc-HT,vinmart+,"Nhà tại thửa 17, TBĐ số 45, KDC Phong Bắc-Hòa Thọ (62 Nguyễn Hữu Tiến), Phường Hòa Thọ Đông, Cẩm Lệ, Đà Nẵng",16.005992211371815,108.1951616051026
227,VM+ DNG 226 Lý Triện,vinmart+,"226 Lý Triện, Phường An Khê, Quận Thanh Khê, Đà Nẵng",16.057596494046276,108.1859508993455
228,VM+ QNM Thửa 02 TBĐ 00 Nguyễn Duy Hiệu,vinmart+,"VM+ QNM Nhà tại thửa 02, TBĐ 00, Khối Sơn Phô II (112 Nguyễn Duy Hiệu), Phường Cẩm Châu, Hội An, Quảng Nam",15.881868825970011,108.3490882160493
229,VM+ HCM 7-9 Nguyễn Hiền,vinmart+,"7-9 Nguyễn Hiền, phường 4, quận 3, TP HCM",10.77286990951769,106.6806683780976
230,VM+ HCM Golden Mansion,vinmart+,"CC Golden Mansion, Lô GM-01.08 Tầng 1, Khu phức hợp Nhà ở và Thương mại Dịch vụ, 119 Phổ Quang, Phường 9, Phú Nhuận, TPHCM",10.808780543021241,106.67129592239178
231,VM+ CTO 365/14 Nguyễn Văn Cừ,vinmart+,"VM+ CTO 365/14 Nguyễn Văn Cừ, Q.Ninh Kiều, TP.Cần Thơ",10.047118466248415,105.76793410800178
232,VM+HCM A–01 Dự án Valora Mizuki,vinmart+,"A – 01 Dự án Valora Mizuki tại xã Bình Hưng, Huyện Bình Chánh, TP HCM",10.714178875053824,106.66328766368109
233,VM+ DNG 51 Lê Trọng Tấn,vinmart+,"51 Lê Trọng Tấn, Phường Hòa Phát, Cẩm Lệ, Đà Nẵng",16.036516090364362,108.18616547606666
234,VM+ HCM 120E Xóm Đất,vinmart+,"120E Xóm Đất, Phường 8, Quận 11, TPHCM",10.758846446251528,106.64693155310827
235,VM+HCM 51A Nguyễn Tuyển ,vinmart+,"51A Nguyễn Tuyển, KP5, phường Bình Trưng Tây, quận 2, TP HCM",10.784505568222754,106.76510431788643
236,VM+ PYN 365 Nguyễn Văn Linh,vinmart+,"365 Nguyễn Văn Linh, phường Phú Lâm, TP Tuy Hòa, Phú Yên",13.044950699772546,109.31041338465887
237,VM+ PYN 107-109 Nguyễn Trãi,vinmart+,"107-109 Nguyễn Trãi, phường 4, TP Tuy Hòa, tỉnh Phú Yên",13.090715592540178,109.30539765380104
238,VM+ PYN 16 Trần Phú,vinmart+,"16 Trần Phú, Phường 2, Tuy Hòa, Phú Yên",13.091885992267182,109.29560759089668
239,VM+ PYN 222 Lê Lợi,vinmart+,"222 Lê Lợi, Phường 5, Tuy Hòa, Phú Yên",13.090036340148867,109.31046702883918
240,"VM+ BTE TD 42, TBD 14",vinmart+,"BTE TD 42, TBD 14, Phường Phú Khương, TP Bến Tre, tỉnh Bến Tre (600B Nguyễn Thị Định)",10.254117402202773,106.37390949748236
241,"VM+ VTU Tổ 3, Ấp Mỹ Xuân",vinmart+,"VM+ VTU Tổ 3, Ấp Mỹ Xuân, huyện Tân Thành, Tỉnh Bà Rịa - Vũng Tàu",10.616712220666148,107.06653364918907
242,"VM+ HCM Đất Tân Hương, Thửa 375-376",vinmart+,"VM+ HCM Đất Tân Hương, Thửa 375-376, Phường Tân Thành, Quận Tân Phú, TPHCM",10.790555089776252,106.62845113299568
243,VM+ HCM Hope Garden,vinmart+,"Lô thương mại TA2, Tầng trệt và lửng, chung cư Hope Garden, 102 Phan Huy Ích, Phường 15, Tân Bình, TPHCM",10.828351301083602,106.63413607500273
244,VM+ HCM 149 Đội Cung ,vinmart+,"149 Đội Cung, Phường 9, Quận 11, TP Hồ Chí Minh",10.762630368718698,106.64618053458412
245,VM+ GLI 172 Đinh Tiên Hoàng,vinmart+,"172 Đinh Tiên Hoàng, Phường Yên Đỗ, TP Pleiku, Gia Lai",13.985094323524786,107.99402811549385
246,VM+ STG 177 Nguyễn Huệ,vinmart+,"177 Nguyễn Huệ, khóm 3, Phường 1, TX Sóc Trăng, tỉnh Sóc Trăng",9.603122848302498,105.97261884234626
247,VM+ TVH 363 khóm 8,vinmart+,"363, khóm 8, phường 7, TP Trà Vinh, tỉnh Trà Vinh",9.928665717912176,106.32991054080208
248,VM+ AGG CS11-14-15 Đường số 8-4B Diamond,vinmart+,"Căn hộ CS11-14 và CS11-15, Đường số 8 và Đường số 4B, Khu Đô thị mới Tây Sông Hậu (Diamond City), Phường Mỹ Phước, TP Long Xuyên, Tỉnh An Giang.",10.371737407808242,105.45274236224371
249,VM+HCM 196 Mã Lò ,vinmart+,"196 Mã Lò, KP 6, phường Bình Trị Đông A, quận Bình Tân, TP HCM",10.765934674417482,106.60363801739894
250,VM+ HCM 55 Trương Phước Phan,vinmart+,"55 Trương Phước Phan, Khu phố 18, Phường Bình Trị Đông, Quận Bình Tân, TPHCM ",10.76454866224357,106.6131276728936
251,VM+ LDG 223/4 Vòng Lâm Viên ,vinmart+,"223/4 Vòng Lâm Viên, Phường 8, TP Đà Lạt, Tỉnh Lâm Đồng (223/4 Mai Anh Đào)",11.980022216892257,108.45619418643196
252,VM+ LDG 83 Phan Đình Phùng,vinmart+,"83 Phan Đình Phùng, Phường 1, TP Đà Lạt, Tỉnh Lâm Đồng",11.942704091093312,108.4325531961747
253,"VM+ LDG TD 351, TBD 2 (B47-III)",vinmart+,"TD 351, TBD 2 (B47-III), Phường 9, TP Đà Lạt, Lâm Đồng (D03 Mê Linh)",11.962361433890727,108.47257918929337
254,VM+ LDG 105 Ngô Quyền,vinmart+,"105 Ngô Quyền, Phường 6, Thành phố Đà Lạt, Tỉnh Lâm Đồng ",11.955200017757706,108.42878201029976
255,VM+ LDG 09 Bùi Thị Xuân,vinmart+,"09 Bùi Thị Xuân, Phường 2, TP Đà Lạt, Lâm Đồng (89 Bùi Thị Xuân)",11.946000006787104,108.43973078749858
256,VM+ BPC 09 Phạm Ngọc Thạch,vinmart+,"9 Phạm Ngọc Thạch, Tiến Thành, Đồng Xoài, Bình Phước",11.527274790739968,106.86672248862465
257,VM+ BPC 36 Nguyễn Chánh,vinmart+,"36 Nguyễn Chánh, Phường Tân Phú, Đồng Xoài, Bình Phước",11.531427170721376,106.87663056872566
258,VM+ KTM 440 Trần Phú,vinmart+,,14.34763078367192,108.00485351107795
259,"VM+ KTM TĐ 17-18, TBĐ 13 Đoàn Thị Điểm",vinmart+,"TĐ 17, TBĐ 13, và TĐ 18, TBĐ 13, Đoàn Thị Điểm, phường Quyết Thắng, thành phố Kon Tum, tỉnh Kon Tum (160-162-164 Đoàn Thị Điểm)",14.350220874489924,108.0017636062928
260,"VM+ KTM TĐ 44-45-46, TBĐ 4 Lê Hồng Phong",vinmart+,"TĐ 44&45&46, TBĐ 4, Lê Hồng Phong, phường Quyết Thắng, thành phố Kon Tum, tỉnh Kon Tum (127-129 Lê Hồng Phong)",14.354633769357168,108.00313689730842
261,VM+ KTM 364-366 Bà Triệu,vinmart+,"364-366 Bà Triệu, phường Quang Trung, thành phố Kon Tum, tỉnh Kon Tum",14.355169053501527,107.9970643760987
262,"VM+ KTM TĐ 16, TBĐ 86, Đào Duy Từ",vinmart+,"TĐ 16, TBĐ 86, Đào Duy Từ, phường Thắng Lợi, thành phố Kon Tum, tỉnh Kon Tum (348 Đào Duy Từ)",14.350320267897525,108.01831820033271
263,"VM+ KTM TĐ 71, TBĐ 18, Lê Hồng Phong",vinmart+,"TĐ 71, TBĐ 18, Lê Hồng Phong, phường Quyết Thắng, thành phố Kon Tum, tỉnh Kon Tum (323 Lê Hồng Phong)",14.355028736422396,108.00294377825935
264,"VM+ KTM TĐ 16, TBĐ 61, Bà Triệu",vinmart+,"TĐ 16, TBĐ 61, Bà Triệu, phường Thắng Lợi, thành phố Kon Tum, tỉnh Kon Tum (1A Bà Triệu)",14.354914403922622,108.02111306212623
265,VM+ BDG 24/1 -24/3 Lê Trọng Tấn,vinmart+,"24/1 – 24/3 Lê Trọng Tấn , thị xã Dĩ An , Bình Dương",10.871168598359723,106.75760486148079
266,VM+HCM 120-122 đường số 2,vinmart+,"120-122 đường số 2, khu phố 1, P. Tăng Nhơn Phú B, quận 9, TP HCM",10.841591757554863,106.78460934184272
267,VM+ BTE 63/2 Phan Đình Phùng,vinmart+,"63/2 Phan Đình Phùng, Phường 4, TP Bến Tre (TBD 4, TD 540 và 541)",10.243612541325668,106.3762376549073
268,VM+ BTE 298F Khu phố 2,vinmart+,"298F Khu phố 2, Phường Phú Khương, TP Bến Tre",10.251942555072,106.38100125811778
269,VM+ HCM Chung cư Hoa Phượng (Zen Tower),vinmart+,"1.02, 1.03, 2.03, 2.04 Tầng 1+2, Chung cư Hoa Phượng (Zen Tower), 34/1A Quốc lộ 1A, Phường Thới An, Quận 12, TPHCM",10.861749003226182,106.6545651199647
270,VM+BDG 612/3C kp Thanh Bình,vinmart+,"612/3C KP Thanh Bình, phường An Thạnh, thị xã Thuận An, tỉnh Bình Dương",10.951760330597203,106.69085004351814
271,VM+ TVH 57 Đồng Khởi,vinmart+,"57 đường Đồng Khởi, khóm 9, phường 6, TP Trà Vinh, tỉnh Trà Vinh",9.931434562093438,106.34255983851631
272,VM+ TVH 214 Lê Lợi ( 16 Lê Lợi cũ ),vinmart+," 214 đường Lê Lợi, khóm 1, phường 1, TP Trà Vinh, tỉnh Trà Vinh ( 16 Lê Lợi )",9.941104196689198,106.34209849856578
273,VM+ HCM 97 Nguyên Hồng,vinmart+,"97 Nguyên Hồng, phường 1, Gò Vấp, TPHCM",10.81863002030735,106.6903565170594
274,VM+ HCM 179A Nghĩa Phát,vinmart+,"179A Nghĩa Phát, Phường 6, Quận Tân Bình, TPHCM",10.785411950282617,106.65774085543829
275,"VM+VLG thửa 123, tờ BĐ 09",vinmart+,"Thửa 123, tờ BĐ 09, khóm Lê Văn Tám, phường 1, TP Vĩnh Long",10.254476356118948,105.96966841242987
276,"VM+ NTN TD 305, TBD 9-d ",vinmart+,"TD 305, TBD 9-d, Phường Phước Mỹ, thị xã Phan Rang-Tháp Chàm, Tỉnh Ninh Thuận (284 Đường 21 Tháng 8)",11.58453016352989,108.97036292575079
277,VM+ NTN 134 Ngô Gia Tự,vinmart+,"134 Ngô Gia Tự, Phường Thanh Sơn, TP Phan Rang-Tháp Chàm, Tỉnh Ninh Thuận",11.572716354338365,108.99426677249151
278,VM+ HPG 84 Nguyễn Văn Hới,vinmart+,"Số 84 Nguyễn Văn Hới, Phường Cát Bi, Quận Hải An, Thành phố Hải Phòng",20.82711292406016,106.7120448591538
279,VM+ QNH Tổ 1 khu 1 Giếng Đáy,vinmart+,"Tổ 1 khu 1 phường Giếng Đáy, Thành phố Hạ Long, Tỉnh Quảng Ninh",20.98162931599368,107.021856093628
280,VM+ HNI 71 Ngõ 180 Tây Mỗ,vinmart+," 71 Ngõ 180 Tây Mỗ, Quận Nam Từ Liêm, Hà Nội",21.000065319873823,105.7480535747834
281,VM+ LCI 030 Quy Hóa,vinmart+,"030 Quy Hóa, Phường Kim Tân, Thành phố Lào Cai, Tỉnh Lào Cai",22.485111466444074,103.97428969682709
282,VM+ LCI 114 Hàm Nghi,vinmart+,"114 Hàm Nghi, Phường Kim Tân, Thành phố Lào Cai, Tỉnh Lào Cai",22.477380563906227,103.97559621356207
283,VM+ HNI 32 Sáp Mai,vinmart+,"32 Sáp Mai, Xã Võng La, Huyện Đông Anh, Thành phố Hà Nội",21.112239874082263,105.77877023242195
284,VM+ HNI 4+5 Block 1 Khu nhà ở Hi Brand,vinmart+,"Nhà số 4+5, Block 1, Ô H-TT1, Khu nhà ở Hi Brand, Khu đô thị mới Văn Phú, Phường Phú La, Quận Hà Đông, Thành phố Hà Nội",20.959889839006664,105.76430776141363
285,VM+ HNI QL35 Thôn Phú Nhi,vinmart+,"QL35 Thôn Phú  Nhi, xã Thanh Lâm, huyện Mê Linh, thành  phố Hà Nội",21.1969991571332,105.73733546755987
286,VM+ SLA 319 Lò Văn Giá,vinmart+,"Số 319 Lò Văn Giá, Phường Chiềng Lề, Thành phố Sơn La, Tỉnh Sơn La",21.353652112572107,103.9101073982545
287,VM+ SLA 67 Trường Chinh,vinmart+,"Số 67 đường Trường Chinh, Phường Quyết Thắng, Thành phố Sơn La, Tỉnh Sơn La",21.32511879716455,103.91531356595236
288,VM+ SLA 15 Lê Lợi,vinmart+,"Số 15 Đường Lê Lợi, Phường Quyết Thắng, Thành phố Sơn La, Tỉnh Sơn La",21.327889677622046,103.91497828982551
289,VM+ SLA 274 Trường Chinh,vinmart+,"Số 274 Đường Trường Chinh, Phường Quyết Thắng, Thành phố Sơn La, Tỉnh Sơn La",21.320723758652445,103.92095693371971
290,VM+ LCI 050 Phan Đình Phùng,vinmart+,"050 Phan Đình Phùng, Phường Phố Mới, Thành phố Lào Cai, Tỉnh Lào Cai",22.491160021451808,103.9767871143647
291,VM+ HYN S3-02 Tòa Sky 3(A4) Ecopark,vinmart+,"Căn S3-01, tầng 1 tháp Sky 3(A4), Khu căn hộ Vịnh Thủy(Khu chung cư cao tầng Aqua Bay CT29,30 và CT32,33) Khu  đô thị Thương mại và Du lịch Văn Giang ( Ecopark) xã Xuân Quan, huyện Văn Giang, tỉnh Hưng Yên",20.954279138301068,105.93948819659431
292,VM+ BGG 2A Võ Nguyên Giáp,vinmart+,"Số nhà 2A, Đường Võ Nguyên Giáp, Xã Tân Mỹ, Thành phố Bắc Giang, Tỉnh Bắc Giang",21.261774062039994,106.16736867449957
293,VM+ HNI Ngã Ba Yên Tàng,vinmart+,"Ngã Ba Yên Tàng, Thôn Yên Tàng, Xã Bắc Phú, Huyện Sóc Sơn, TP Hà Nội",21.27817078777895,105.89241006396492
294,VM+ HPG 623 Ngô Gia Tự,vinmart+,"623 Ngô Gia Tự, Phường Đằng Lâm, Quận Hải An, Thành phố Hải Phòng",20.829466928762677,106.71486117861946
295,VM+ HPG 817 Mạc Đăng Doanh,vinmart+,"Số 817 Đường Mạc Đăng Doanh, Phường Đa Phúc, Quận Dương Kinh, Thành phố Hải Phòng",20.79071518180765,106.6566411497422
296,VM+ HPG Thôn 3 Xã Tú Sơn,vinmart+,"Thôn 3 Xã Tú Sơn, Huyện Kiến Thụy, Thành phố Hải Phòng",20.71504840588994,106.73355081103523
297,"VM+ HPG Thôn Giữa, X. Quảng Thanh",vinmart+,"Thôn Giữa, Xã Quảng Thanh, Huyện Thủy Nguyên, Hải Phòng",20.9652398468675,106.61068418048106
298,VM+ HPG Thôn Bái Ngoài-Hoa Động,vinmart+,"Thôn Bái Ngoài, Xã Hoa Động, Huyện Thủy Nguyên, Thành phố Hải Phòng",20.885270371029197,106.66694619677742
299,VM+ HNI Thôn Yên Ngưu-Tam Hiệp,vinmart+,"Thôn Yên Ngưu, Xã Tam Hiệp, Huyện Thanh Trì, Thành phố Hà Nội",20.9493295240739,105.83760716937263
300,VM+ QNH Tổ 1 khu 5 P Mông Dương,vinmart+,"Tổ 1 Khu 5, Phường Mông Dương, Thành phố Cẩm Phả, Tỉnh Quảng Ninh",21.0654819689158,107.32484915278631
301,VM+ HNI 17 Ngõ 75 Hồ Tùng Mậu,vinmart+,"17 Ngõ 75 Hồ Tùng Mậu, Phường Mai Dịch, Quận Cầu Giấy, TP Hà Nội",21.036439820821407,105.776259684784
302,VM+ HNI 8 Trương Công Giai,vinmart+,"Số 8 Trương Công Giai, tổ 21, phường Dịch Vọng, quận Cầu Giấy, Hà Nội. ",21.03560366751085,105.79086163066108
303,VM+ QNH Dự án quỹ đất đường sắt,vinmart+,"Dự án quỹ đất dọc bên tuyến đường sắt, Tổ 3 Khu 2, Phường Cẩm Sơn, Thành phố Cẩm Phả, Tỉnh Quảng Ninh",21.007512198822464,107.3146674873658
304,VM+ HNI Thôn Lã Côi,vinmart+,"Thôn Lã Côi, Xã Yên Viên, Huyện Gia Lâm, Thành phố Hà Nội",21.097636491305845,105.92004754565436
305,"VM+ HNI 85 Lê Lợi, TT Vân Đình",vinmart+,"85 Lê Lợi, Thị Trấn Vân Đình, Huyện Ứng Hòa, Thành phố Hà Nội",20.96999858813802,105.77887752078254
306,VM+ NAN 88 Lê Viết Thuật,vinmart+,"88 Lê Viết Thuật, Xã Hưng Lộc, TP Vinh, Nghệ An",18.689589288442786,105.702777886612
307,VM+ HBH 469 Hoàng Văn Thụ,vinmart+,"469 Hoàng Văn Thụ, Phường Hữu Nghị, Thành phố Hòa Bình, Tỉnh Hòa Bình",20.837418629944445,105.33348062060554
308,VM+ HBH 490 Trần Hưng Đạo,vinmart+,"Số 490 Trần Hưng Đạo, Xã Sủ Ngòi, Thành phố Hòa Bình, Tỉnh Hòa Bình",20.82012088700377,105.34944512866218
309,VM+ NTN 134 Ngô Gia Tự,vinmart+,"134 Ngô Gia Tự, Phường Thanh Sơn, TP Phan Rang-Tháp Chàm, Tỉnh Ninh Thuận",11.57271635433858,108.99439551852423
310,"VM+ HCM Thửa 526, P. Phú Thuận",vinmart+,"Thửa 526, P.Phú Thuận, Q7, TPHCM",10.730223066850794,106.7429492714234
311,"VM+ DLK TĐ 2A, TBD 41 (70 Y Wang)",vinmart+,"70 Y Wang, Phường Eatam, TP Buôn Ma Thuột, Đăk Lắk",12.65174710127614,108.03010919116218
312,"VM+DNI, 31 Lô B5, P. Tân Phong",vinmart+,"31 Lô B5, P Tân Phong, Biên Hòa , Đồng Nai",10.985044118710132,106.84641816638194
313,VM+ HNI 120 QL21 Thôn Tảo Dương,vinmart+,"Số 120 QL21, Thôn Tảo Dương, Xã Hồng Dương, Huyện Thanh Oai, Thành phố Hà Nội",20.326914216046294,106.26000144503791
314,VM+ HYN Thôn Hồng Cầu,vinmart+,"Thôn Hồng Cầu, xã Lạc Hồng, huyện Văn Lâm, tỉnh Hưng Yên",20.95730493518068,106.01549127124031
315,VM+ DNG 123 Dương Đình Nghệ,vinmart+,"VM+ DNG 123 Dương Đình Nghệ, Phường An Hải Bắc, Sơn Trà, Đà Nẵng (Nhà tại thửa 16, TBĐ số B1.2)",16.06860237213608,108.23846855185707
316,VM+ HCM 104 đường số 2,vinmart+,"104 đường số 2, Phường Trường Thọ, Thủ Đức, TPHCM",10.837350449458652,106.75208487532814
317,VM+ DNG 17 Nguyễn Tri Phương,vinmart+,"17 Nguyễn Tri Phương, Phường Thạc Gián, Quận Thanh Khê, Đà Nẵng",16.058374915730774,108.20643761180122
318,VM+HCM 363-365A Tô Ngọc Vân,vinmart+,"363-365A Tô Ngọc Vân, KP2, phường Linh Đông, Thủ Đức",10.859599523762435,106.74746074698645
319,"VM+ NTN TD 49, TBD 45-8",vinmart+,"TD 49, TBD 45-8, KP Khánh Chữ 2, thị trấn Khánh Hải, huyện Ninh Hải, Tỉnh Ninh Thuận (117 Cây Đa)",11.59472495337384,109.03625943682869
320,VM+ NTN 10 Nguyễn Du,vinmart+,"10 Nguyễn Du, Phường Vũ Bảo, TP Phan Rang-Tháp Chàm, Tỉnh Ninh Thuận",11.5929697944188,108.9522606971093
321,VM+ BLU 236 - 238 Bà Triệu,vinmart+,"236 - 238 Bà Triệu, Phường 3, TP Bạc Liêu, Tỉnh Bạc Liêu",9.284689186953688,105.72046973727423
322,"VM+ BLU Thửa 477, TBĐ 12 Tôn Đức Thắng",vinmart+,"Thửa 477, TBĐ 12 Tôn Đức Thắng, Phường 7, TP Bạc Liêu, Tỉnh Bạc Liêu (153C/5 Tôn Đức Thắng, Phường 7, TP Bạc Liêu, Tỉnh Bạc Liêu)",11.325921544218845,106.47743203662115
323,VM+ BTE 401B Nguyễn Đình Chiểu,vinmart+,"401B Nguyễn Đình Chiểu, Phường 8, TP Bến Tre ( TD 57, TBD 20)",10.23730681819574,106.39094688914496
324,VM+ HCM 15 Nguyễn Quang Bích ,vinmart+,"15 Nguyễn Quang Bích, phường 13, Tân Bình, TPHCM",10.804640307079403,106.64651849292
325,VM+ HCM 120 Lò Lu,vinmart+,"120 Lò Lu, phường Trường Thạnh, quận 9, TP HCM",10.824378523086413,106.80829861186226
326,VM+ HCM 11/23-11/25-11/27 Nguyễn Đức Thuận,vinmart+,"11/23-11/25-11/27 Nguyễn Đức Thuận, Phường 13, Tân Bình, TPHCM",10.804872156982439,106.64173343203743
327,VM+ HCM 1033 Nguyễn Xiển,vinmart+,"1033 Nguyễn Xiển, phường Long Bình, quận 9, TP HCM",10.860254050744693,106.8367658528673
328,,vinmart+,,10.963044669963393,106.90540054217794
329,VM+ HCM 82 Tô Vĩnh Diện,vinmart+,"VM+HCM 82 Tô Vĩnh Diện, KP5, P.Linh Chiểu, Q.Thủ Đức",10.853003475515036,106.76729300044258
330,VM+ HCM 79A Huỳnh Tịnh Của,vinmart+,"79A Huỳnh Tịnh Của, Phường 8, Quận 3, TPHCM",10.790238915705626,106.68636002562721
331,"VM+ AGG Thửa 173, TBĐ 6",vinmart+,"Thửa 173, TBĐ 6, Mỹ Phước, Long Xuyên, An Giang",10.371579104801057,105.44473865054329
332,VM+ HNI Đội 4 Thôn 1 Xã Thạch Đà,vinmart+,"Đội 4 Thôn 1 Xã Thạch Đà, Huyện Mê Linh, TP Hà Nội",21.17677180323249,105.6742284538575
333,VM+ HNI Khu 14 Thôn Yên Nhân,vinmart+," Khu 14 Thôn Yên Nhân, Xã Tiền Phong, Huyện Mê Linh, TP Hà Nội",21.14670576340094,105.75478055499278
334,VM+ HNI Khu 5 Thôn Do Hạ,vinmart+,"Khu 5 Thôn Do Hạ, Xã Tiền Phong, Huyện Mê Linh, TP Hà Nội",21.155401029538478,105.76672174952705
335,VM+ HNI Số 1 Tập thể  TCT Dược,vinmart+,"Số 1, TT Tổng Công ty Dược Việt Nam, tổ 1, phường Quan Hoa, quận Cầu Giấy, Hà Nội",21.014718340459694,105.81392862818916
336,VM+ TNN 105 Tổ 1 Phường Chùa Hang,vinmart+,"Số 105 tổ 1 Phường Chùa Hang, TP Thái Nguyên, Tỉnh Thái Nguyên",21.643660094845103,105.84262826464851
337,VM+ HYN Thôn Trương Xá,vinmart+,"Thôn Trương Xá, Xã Toàn Thắng, Huyện Kim Động, Tỉnh Hưng Yên",20.791286902619934,106.04692676089485
338,VM+ BNH Thôn Đại Thượng,vinmart+,"Thôn Đại Thượng, Xã Đại Đồng, Huyện Tiên Du, Tỉnh Bắc Ninh",21.09100994535335,105.98799326441963
339,VM+ NDH 138 Hưng Yên,vinmart+,"138 Tổ 31 Đường Hưng Yên, Phường Quang Trung, TP Nam Định, Tỉnh Nam Định",20.43180546048968,106.17237367652136
340,VM+ HTH 149 Vũ Quang,vinmart+,"149 Vũ Quang, Phường Thạch Linh, TP Hà Tĩnh, Hà Tĩnh",18.34038902886812,105.88424005530555
341,VM+ NAN 22A Nguyễn Văn Trỗi,vinmart+," 22A Nguyễn Văn Trỗi, Phường Bến Thủy, TP Vinh, Nghệ An",18.65832474417965,105.69802233002859
342,VM+ NAN 47 Nguyễn Duy Trinh,vinmart+,"47 Nguyễn Duy Trinh, Phường Hưng Dũng, TP. Vinh, Nghệ An  ",18.677174620817283,105.70139923117836
343,VM+ NAN 84 Phạm Kinh Vỹ,vinmart+,"84 Phạm Kinh Vỹ, Phường Bến Thủy, TP Vinh, Nghệ An",18.661790961192636,105.69858827613078
344,VM+ NAN LK1-04 Trường Thịnh Phát II,vinmart+,"LK1 - 04 – Khu nhà ở Trường Thịnh Phát II– P.Hà Huy Tập, TP. Vinh, Nghệ An ",18.692871934258395,105.68924882434092
345,VM+ HNI 95 Ba Thá,vinmart+,"95 Ba Thá, Xã Viên An, Huyện Ứng Hòa, Thành phố Hà Nội",20.80557420421505,105.70912935755928
346,VM+ HNI 42 Nghĩa Lộ-Yên Nghĩa,vinmart+,"Số 42 Đường Nghĩa Lộ, Phường Yên Nghĩa, Quận Hà Đông, Thành phố Hà Nội",20.94946979879616,105.7420561554261
347,VM+ LSN Số 37-39 Lê Hồng Phong,vinmart+,"Số 37-39 Lê Hồng Phong, Khối 8, Phường Tam Thanh, Thành phố Lạng Sơn, Tỉnh Lạng Sơn",21.85876358365311,106.7538068535157
348,VM+ HGG 50 Trần Phú,vinmart+,"Số 50 Trần Phú, Tổ 5, Phường Minh Khai, Thành phố Hà Giang, Tỉnh Hà Giang",22.819654106283764,104.98721816561896
349,"VM+ HNI Thôn Thái Hòa, Thạch Thất",vinmart+," Thôn Thái Hòa, Xã Bình Phú, Huyện Thạch Thất, TP Hà Nội",21.02791283975724,105.60669579528052
350,VM+ HTH Chợ Thạch Hà,vinmart+,"Kiot A01, A02, A03, B01, B02 Dự án chợ Thạch Hà, thị trấn Thạch Hà, huyện Thạch Hà, tỉnh Hà Tĩnh. ",18.365052560308488,105.86759426615913
351,VM+ HTH 82 Vũ Quang,vinmart+," 82 Vũ Quang, Phường Trần Phú, TP Hà Tĩnh, Hà Tĩnh",18.341331032707984,105.88835992835243
352,VM+ HTH 36 Phan Đình Giót,vinmart+,"36 Phan Đình Giót, Phường Nam Hà, TP Hà Tĩnh, Hà Tĩnh",18.338245314507773,105.9019158127137
353,VM+ HNI 248 Chợ Chiều Chuông,vinmart+,"248 Chợ Chiều Chuông, Xã Phương Trung, Huyện Thanh Oai, Thành phố Hà Nội",20.82701515310088,105.76739766619879
354,VM+ TTH 224 Đinh Tiên Hoàng,vinmart+,"224 Đinh Tiên Hoàng, phường Thuận Lộc, thành phố Huế , Thừa Thiên Huế ",16.481906206194697,107.5748846771546
355,VM+ HPG 129-131 Chợ Hàng,vinmart+,"129 - 131 Chợ Hàng, phường Dư Hàng Kênh, quận Lê Chân, Hải Phòng",20.84192073102555,106.68487408183296
356,VM+ HPG Thôn 4 Xã Kiến Quốc,vinmart+,"Thôn 4, Xã Kiến Quốc, Huyện Kiến Thụy, Thành phố Hải Phòng",20.73541855136144,106.63656213305671
357,VM+ HNI Thôn Bến Trung X Bắc Hồng,vinmart+,"Thôn Bến Trung, Xã Bắc Hồng, Huyện Đông Anh, Thành phố Hà Nội",21.179562982536293,105.81267335437022
358,VM+ HNI Thôn 9 Xã Phùng Xá,vinmart+,"Thôn 9, Xã Phùng Xá, Huyện Thạch Thất, Hà Nội",21.018168551877125,105.61667897723395
359,VM+ HNI LK11-Lô 6 Phùng Khoang,vinmart+," LK11-Lô 6, Dự án nhà ở Phùng Khoang, Phường Trung Văn, Quận Nam Từ Liêm, Hà Nội",20.98939264855829,105.7938174249955
360,VM+ HNI B4-23 Cự Lộc,vinmart+,"Căn B4 Số 23 Phố Cự Lộc, P.Thượng Đình, Q.Thanh Xuân, TP Hà Nội",21.000582406695163,105.81403189323623
361,VM+ NBH 28 Hoàng Hoa Thám,vinmart+,"28 Hoàng Hoa Thám, Phường Thanh Bình, TP Ninh Bình, Tỉnh Ninh Bình",20.252044461781193,105.97806909106451
362,VM+ QNH Thôn Đông Sơn-Đông Xá,vinmart+,"Thôn Đông Sơn, Xã Đông Xá, Huyện Vân Đồn, Tỉnh Quảng Ninh",21.04993278356788,107.4020002128907
363,VM+ QNH Khu 1 TT Cái Rồng,vinmart+,"Khu 1, Thị trấn Cái Rồng, Huyện Vân Đồn, Tỉnh Quảng Ninh",21.065111530722664,107.41779305957041
364,VM+ TTH 58 Chu Văn An,vinmart+,"58 Chu Văn An, Phú Hội, TP Huế, Thừa Thiên Huế",16.468413048502992,107.59656229041298
365,VM+ HPG 57 Khu Cầu Đen TT Núi Đối,vinmart+,"57 Khu Cầu Đen, Thị trấn Núi Đối, Huyện Kiến Thụy, Thành phố Hải Phòng",20.758394390410725,106.67394139788826
366,VM+ HPG Số 46 Bãi Sậy-Trại Chuối,vinmart+,"Số 46, Phố Bãi Sậy, Phường Trại Chuối, Quận Hồng Bàng, Thành phố Hải Phòng",20.85764193397226,106.65836312792976
367,VM+ HPG Thôn Đại Lộc 5,vinmart+,"Thôn Đại Lộc 5, Xã Đại Hợp, Huyện Kiến Thụy, Thành phố Hải Phòng",20.701861540920643,106.71904542468269
368,VM+ HPG 67 Hoàng Quốc Việt,vinmart+,"67 Hoàng Quốc Việt, Phường Ngọc Sơn, Quận Kiến An, Thành phố Hải Phòng",20.813361692981285,106.62330129168707
369,VM+ HNI 134 Hoàng Tăng Bí,vinmart+,"134 Hoàng Tăng Bí, TDP Tân Nhuệ, Thụy Phương, Quận Bắc Từ Liêm, Hà Nội",21.083412076510587,105.77190377734381
370,VM+ HNI Ô DVTM-07 CT3 KĐT Gelexia,vinmart+,"Ô DVTM-07, Tầng 1+2 tòa nhà CT3 Khu đô thị Gelexia Riverside, Ngõ 885 Tam Trinh, Phường Yên Sở, Quận Hoàng Mai, Thành phố Hà Nội",20.975328198526665,105.86999752543647
371,VM+ QNH Tổ 70 khu 7-Phường Hà Khẩu,vinmart+,"Tổ 70 khu 7, phường Hà Khẩu, Thành phố Hạ Long, Quảng Ninh",20.973795454104167,106.98600032351692
372,VM+ QNH Tổ 8 Khu 3B Cẩm Trung,vinmart+,"Tổ 8, Khu 3B, Phường Cẩm Trung, Thành phố Cẩm Phả, Tỉnh Quảng Ninh",21.002193752926797,107.26956346057136
373,"VM+ HNI Thôn Bình An, Sóc Sơn",vinmart+," Thôn Bình An, Xã Trung Giã, Huyện Sóc Sơn,TP Hà Nội",21.32331232483646,105.87558724902351
374,VM+ HNI 186+188 Tư Đình,vinmart+,"186 và 188 Tư Đình, Phường Long Biên, Quận Long Biên, Hà Nội",21.03118749853508,105.88884809039314
375,VM+ HNI T1 Tòa Trung Yên Smile,vinmart+,"Tầng 1, Tòa Trung Yên Smile, Khu A, Lô 19.NO và 20.BT KĐTM Bắc Đại Kim, Số 1 Nguyễn Cảnh Dị, Phường Định Công, Quận Hoàng Mai, Thành phố Hà Nội",20.978744258620733,105.83610513232428
376,"VM+ HNI Số 83 Lại Đà, Đông Hội",vinmart+,"Số 83, Ngõ 384, Đường Đông Hội, Xã Đông Hội, Huyện Đông Anh, Hà Nội",21.092661604557065,105.86702563784796
377,"VM+ HYN Thôn Hoàng Nha, Văn Lâm",vinmart+,"Thôn Hoàng Nha, Xã Minh Hải, Huyện Văn Lâm, Tỉnh Hưng Yên",20.97782263133132,106.03660562060554
378,"VM+ VPC Khu 3 Thôn Đoài, Đường DT 303",vinmart+,"Khu 3 Thôn Đoài, Đường DT 303, Thị trấn Yên Lạc, Huyện Yên Lạc, Tỉnh Vĩnh Phúc",21.234235453038444,105.58090903781135
379,VM+ QTI 51 Lê Lợi,vinmart+,"51 Lê Lợi, Phường 5,Thành phố Đông Hà , Tỉnh Quảng Trị",16.8126682373872,107.10657098315436
380,VM+ QTI 29 Lê Duẩn,vinmart+,"29 Lê Duẩn, Phường 2, Thành phố Đông Hà , Tỉnh Quảng Trị",16.83657584362787,107.08893277667244
381,VM+ QTI 25 Trần Hưng Đạo,vinmart+,"25 Trần Hưng Đạo, Phường 1, Thành phố Đông Hà , Tỉnh Quảng Trị",16.822116620957328,107.09884622119148
382,VM+ TTH 47 Hồ Đắc Di,vinmart+,"47 Hồ Đắc Di, An Cựu, Thành Phố Huế, Thừa Thiên Huế ",16.450637825937733,107.6041329287872
383,"VM+ TTH Lô C4-3, KQH Xuân Phú",vinmart+,"Lô C4-3, KQH Xuân Phú , Phường Xuân Phú , TP Huế, Thừa Thiên Huế",16.466494196815148,107.60809042475898
384,"VM+ HCM 483 Lê Văn Quới, KP6",vinmart+,"VM+ HCM 483 Lê Văn Quới, KP6, Phường Bình Trị Đông A, Quận Bình Tân, TPHCM",10.775821024952144,106.60323032162864
385,VM+ DNI 6 Nguyễn Bảo Đức,vinmart+,"6, Nguyễn Bảo Đức, KP6, P.Tam Hiệp,TP.Biên Hòa, Đồng Nai",10.95285580601582,106.86023154280859
386,VM+ ĐNI 8F2-9F2 đường N4,vinmart+,"8F2-9F2 đường N4, phường Bửu Long, thành phố Biên Hòa, Đồng Nai.",10.956489806021784,106.80600264094551
387,"VM+ QNI TĐ 66, TBĐ 12, Phan Chu Trinh",vinmart+,"107 Phan Chu Trinh, Tổ 12, Phường Nguyễn Nghiêm, TP Quảng Ngãi, Quảng Ngãi",15.120400372479446,108.79990854285437
388,VM+ DNG 84 Nguyễn Lương Bằng,vinmart+,"VM+ DNG 84 Nguyễn Lương Bằng, Phường Hòa Khánh Bắc, Liên Chiểu, Đà Nẵng",16.07473653172913,108.14944603465278
389,VM+ KGG 6 Mai Thị Hồng Hạnh,vinmart+,"6 Mai Thị Hồng Hạnh, KP 1, P Rạch Sỏi, TP Rạch Giá, Tỉnh Kiên Giang",9.953669010362383,105.12206890605171
390,VM+ HCM 459 Lê Văn Việt,vinmart+,"VM+ HCM 459 Lê Văn Việt, Phường Tăng Nhơn Phú A, Quận 9, TPHCM",10.845753976608448,106.79544546626288
391,"VM+ CTO Thửa 1717, TBĐ 7 Vũ Đình Liệu",vinmart+,"Thửa đất 1717, TBĐ số 7, Đường Vũ Đình Liệu, KDC Lô Số 8B, KDT Nam Cần Thơ, P.Hưng Thạnh, Q.Cái Răng, TP.Cần Thơ",10.034921745936957,105.788147235138
392,VM+ CTO 158 đường 30/4,vinmart+,"158 đường 30/4, Phường An Phú, Quận Ninh Kiều, Cần Thơ",10.028186677458534,105.77825256608207
393,VM+ CMU 168 Lý Thường Kiệt,vinmart+,"168 Lý Thường Kiệt, Phường 6, TP Cà Mau, Tỉnh Cà Mau",9.175417094652934,105.16832091830452
394,VM+ HCM T1.04Tòa nhà La Astoria,vinmart+,"T1.04 tầng trệt Khối 04 (LA3) 383-385 Nguyễn Duy Trinh, phường Bình Trưng Tây, quận 2, TP HCM",10.788378751525926,106.76579096339424
395,VM+ HCM 81 Cầu Xây,vinmart+,"VM+ HCM 81 Cầu Xây, Phường Tân Phú, Quận 9, TPHCM",10.854578743084438,106.80943050406654
396,VM+ DNG 413 Trường Sơn,vinmart+,"VM+ DNG 413 Trường Sơn	31 Thg10 19	ĐÀ NẴNG	Cẩm Lệ	Phường Hòa Thọ Tây	413 Trường Sơn, Phường Hòa Thọ Tây, Quận Cẩm Lệ, Đà Nẵng",16.01006576920174,108.1621811630555
397,VM+ HCM 2N Bình Giã,vinmart+,"2N Bình Giã, phường 13, Tân Bình, TP HCM",10.799110106901123,106.64439954779823
398,VM+ CMU 81 Hùng Vương,vinmart+,"81 đường Hùng Vương, khóm 4, phường 5, TP Cà Mau, tỉnh Cà Mau.",9.17428909191629,105.14958837054449
399,"VM+ CMU Thửa 8, TBĐ 87 Phan Ngọc Hiển",vinmart+,"Thửa 8, TBĐ 87, Phan Ngọc Hiển, Phường 9, TP Cà Mau, Tỉnh Cà Mau (227-229 Phan Ngọc Hiển)",9.183551318020594,105.14537730239113
400,VM+ CMU 23 Nguyễn Tất Thành,vinmart+,"23 Nguyễn Tất Thành, Ấp Bà Điều, Xã Lý Văn Lâm, TP Cà Mau, Tỉnh Cà Mau  ",9.170560832004012,105.14682033084114
401,VM+ CMU 418 Trần Văn Thời,vinmart+,"418 Trần Văn Thời, Khóm 3, Phường 6, TP Cà Mau, Tỉnh Cà Mau.",9.177252077356256,105.15779056571205
402,VM+ CTO 303 Nguyễn Văn Linh,vinmart+,"VM+ CTO 303 Nguyễn Văn Linh, KV 4, P An Khánh, Ninh Kiều, Cần Thơ",10.025624673471423,105.75922229312141
403,VM+ HCM 1.17-1.04 CC Hiệp Thành-Parkland,vinmart+,"1.17 và 1.04 Tầng 1+2, CC Hiệp Thành (Parkland), số 38 đường N5, KDC Hiệp Thành, Phường Hiệp Thành, Quận 12, TP HCM",10.876615812411993,106.62994244120796
404,VM+ BTE 116A1 Trương Định,vinmart+,"116A1 Trương Định, khu phố Bình Khởi, Phường 6, Thành phố Bến Tre",10.248215719206963,106.35720469973762
405,VM+ DNG 286 Văn Tiến Dũng,vinmart+,"286 Văn Tiến Dũng, phường Hòa Xuân, quận Cẩm Lệ, Đà Nẵng",15.988010844071026,108.21364202521522
406,VM+ HCM 142 Phú Châu,vinmart+,"142 Phú Châu, KP1, Phường Tam Bình, Thủ Đức, TPHCM",10.872675284539367,106.74567439578254
407,"VM+ BDG 10/9 Võ Thị Sáu, KP Tây A",vinmart+,"VM+ BDG 10/9 Võ Thị Sáu, KP Tây A, Phường Đông Hòa, Dĩ An, Bình Dương",10.895727687089042,106.77295782588206
408,VM+ DNG 96 Trịnh Đình Thảo,vinmart+,"96 Trịnh Đình Thảo, P.Khuê Trung, Q.Cẩm Lệ, TP.Đà Nẵng",16.02565022786828,108.21139969847877
409,VM+ DNG 205 CMT8,vinmart+,"205 CMT8, Phường Khuê Trung, Quận Cẩm Lệ, Đà Nẵng",16.017985765285445,108.20700624011238
410,VM+ DNG 85 Lê Đại Hành,vinmart+,"VM+ DNG 85 Lê Đại Hành, Phường Khuê Trung, Quận Cẩm Lệ, Đà Nẵng",16.023533700355465,108.20523598216258
411,VM+ DNG 311 Bùi Tấn Diên,vinmart+,"311 Bùi Tấn Diên, Phường Hòa An, Quận Cẩm Lệ, Đà Nẵng",16.042058354421847,108.1716010811158
412,"VM+ CTO 16, Tỉnh lộ 22",vinmart+,"VM+ CTO 16, Tỉnh lộ 22, KP5, P.Châu Văn Liêm, Ô Môn, Cần Thơ",10.109795684205313,105.6234596016236
413,VM+ TVH 491 Nguyễn Thị Minh Khai,vinmart+,"491 Nguyễn Thị Minh Khai, khóm 7, phường 7, TP Trà Vinh, tỉnh Trà Vinh",9.92473196020396,106.32838713113951
414,VM+ TVH 28-29 Hùng Vương,vinmart+,"28-29 Hùng Vương, khóm 2, phường 5, TP Trà Vinh, tỉnh Trà Vinh",9.937077858987694,106.35137894175728
415,VM+ TVH 251 Phan Đình Phùng,vinmart+,"251 Phan Đình Phùng, khóm 1, P 6, TP Trà Vinh, tỉnh Trà Vinh ( 144 PĐP)",9.927925946417536,106.33915879748542
416,VM+ TVH 314B Điện Biên Phủ,vinmart+,"314B Điện Biên Phủ, khóm 3, phường 6, TP Trà Vinh, tỉnh Trà Vinh ( 408 ĐBP)",9.925516393388339,106.34061791918951
417,VM+ KGG Lô L7 – 6 Huỳnh Thúc Kháng,vinmart+,"Lô L7 – 6 Huỳnh Thúc Kháng, P Vĩnh Quang, TP Rạch Giá, Kiên Giang ",10.018691313707142,105.08246877215583
418,VM+ BLU 131 Nguyễn Thị Minh Khai,vinmart+,"131 Nguyễn Thị Minh Khai, Phường 5, TP Bạc Liêu, Tỉnh Bạc Liêu.",9.282762115399457,105.72712161563118
419,VM+ BLU 5/1 Võ Thị Sáu,vinmart+,"5/1 Võ Thị Sáu, K4F7, TX Bạc Liêu, tỉnh Bạc Liêu ",9.296007871294453,105.7072088959046
420,VM+ BLU 33 Bà Triệu,vinmart+,"33 Bà Triệu, Phường 3, Tp.Bạc Liêu, tỉnh Bạc Liêu",9.289390350022918,105.7274327518769
421,"VM+ BLU KS SGBL, 2-4-6 Hoàng Văn Thụ",vinmart+,"Khách sạn Bạc Liêu, M14, 2-4-6 Hoàng Văn Thụ, Phường 3, TP Bạc Liêu, Tỉnh Bạc Liêu   ",9.285123306006467,105.7240102531739
422,VM+ DNG 116/92 Nguyễn Văn Thoại,vinmart+,"VM+ DNG Nhà tại thửa 57, TBĐ số 9, Tổ 51 (116/92 Nguyễn Văn Thoại), Phường Bắc Mỹ An, Ngũ Hành Sơn, Đà Nẵng",16.054591036064913,108.24086108229835
423,"VM+ GLI TĐ 199&200, TBĐ 7, Lạc Long Quân",vinmart+,"TĐ 199&200, TBĐ 7, Lạc Long Quân, Phường Thắng Lợi, TP Pleiku, Tỉnh Gia Lai",13.972897726259232,108.03413250468452
424,VM+ BTE 90-92 Nguyễn Đình Chiểu,vinmart+,"90-92 Nguyễn Đình Chiểu, Phường 1, TP Bến Tre",10.235947468405561,106.4009676220246
425,"VM+ BTN TĐ 175&197, TBĐ 8&7, Ngư Ông",vinmart+,"VM+ Thửa 175, TBĐ số 8 và thửa 197, TBĐ số 7, Khu phố 3, Phường Đức Thắng, TP Phan Thiết, Tỉnh Bình Thuận (28 Ngư Ông)",10.92302898856166,108.10167857430656
426,VM+ TNH 621 Cách mạng tháng 8,vinmart+,"621 CMT8, KP 2, Phường 3, TP Tây Ninh, Tỉnh Tây Ninh",11.324490834006046,106.10100009463508
427,VM+ BDH 141-143-145 Thành Thái,vinmart+,"141-143-145 Thành Thái, Phường Quang Trung, TP Quy Nhơn, Tỉnh Bình Định",13.7642222951435,109.20255639575205
428,VM+ BDH 131-133 Phan Bội Châu,vinmart+,"131-133 Phan Bội Châu, Phường Trần Hưng Đạo, TP Quy Nhơn, Tỉnh Bình Định",13.775127341607387,109.2304084541627
429,VM+ BDH 01-03 Chế Lan Viên,vinmart+,"01-03 Chế Lan Viên, Phường Ghềnh Ráng, TP Quy Nhơn, Tỉnh Bình Định",13.75050820400109,109.20810588620384
430,VM+ QNI 10 Nguyễn Thụy,vinmart+,"10 Nguyễn Thụy, Phường Trần Phú, Thành phố Quảng Ngãi, Tỉnh Quảng Ngãi",15.119610619122883,108.78376700900276
431,VM+ GLI 47D Nguyễn Trãi,vinmart+,"VM+ GLI 47D Nguyễn Trãi, Phường Yên Đỗ, Thành phố Pleiku, Tỉnh Gia Lai",13.984766382503365,107.99211838267523
432,VM+ HCM 8/9 ấp Hưng Lân,vinmart+,"8/9 ấp Hưng Lân, Xã Bà Điểm, Huyện Hóc Môn, TPHCM",10.848857162993855,106.6003040315934
433,VM+ QNI 83 Quang Trung,vinmart+,"83 Quang Trung, phường Lê Hồng Phong, thành phố Quảng Ngãi, tỉnh Quảng Ngãi ",15.130651363049152,108.80189874194343
434,VM+ BTN 118 Từ Văn Tư,vinmart+,"118 Từ Văn Tư, P. Phú Trinh, Tp Phan Thiết, Bình Thuận",10.937729460255682,108.09864499591072
435,VM+ AGG 43 Bạch Đằng,vinmart+,"43 Bạch Đằng, P Mỹ Long, TP Long xuyên, Tỉnh An Giang.",10.382512377595834,105.44418075106822
436,VM+ KGG 95 Nguyễn Trung Trực,vinmart+,"95 Nguyễn Trung Trực, Phường Vĩnh Bảo, TP Rạch Giá, Tỉnh Kiên Giang",10.004747548384387,105.0869105102845
437,VM+ HCM 112/6 Tân Chánh Hiệp 36,vinmart+,"112/6 Tân Chánh Hiệp 36, Khu phố 6, Phường Tân Chánh Hiệp, Quận 12, TPHCM",10.85897785769948,106.62364461444099
438,"VM+ BTN Thửa 21, TBĐ 05, Ung Chiếm",vinmart+,"VM+ BTN Thửa 21, TBĐ 05, Ung Chiếm, Phường Phú Hài, TP Phan Thiết, Bình Thuận",10.93817188522908,108.14220407031256
439,VM+ TGG thửa 401,vinmart+,"Thửa 401 tờ bản đồ 14, khu phố 1, phường 3, Tp Mỹ Tho, tỉnh Tiền Giang",10.359030698549397,106.371860289795
440,VM+ ĐNI 175-177 đường N16,vinmart+,"175-177 đường N16, KDC đường Võ Thị Sáu, KP7, phường Thống Nhất, thành phố Biên Hòa, tỉnh Đồng Nai",10.948063071137247,106.83215954325874
441,VM+HCM B1.01 chung cư  Thủ Thiêm Garden,vinmart+,"B1.01 tầng 1 Block tại dự án Khu Dân cứ Phước Long, phường Phước Long B, quận 9, thành phố Hồ Chí Minh (VM+ Chung cư 266 Liên phường)",10.81108988303434,106.78562321685035
442,VM+ HCM 109/6B Khu phố 4,vinmart+,"109/6B Khu phố 4, phường Tân Thới Hiệp, Quận 12, TPHCM (109/6B Tân Thới Hiệp 07)",10.867401849622986,106.64116480372627
443,"VM+ BTE TD 164, TBD 11 ",vinmart+,"TD 164, TBD 11, Phường 1, TP Bến Tre (30-32 Lê Lợi)",10.235694074402444,106.38019659541328
444,VM+ DTP 335-337 Đường 30 tháng 4,vinmart+,"335-337 Đường 30 tháng 4, Phường 1, TP Cao Lãnh, tỉnh Đồng Tháp",10.467965496976877,105.62609889529426
445,VM+ TNH 28 - 30 Phạm Hùng,vinmart+,"18A Tua Hai, Khu phố 02, Phường 02, TP Tây Ninh, Tỉnh Tây Ninh.",11.317331915531227,106.09061726353843
446,VM+ TNH 28 - 30 Phạm Hùng,vinmart+,"28 - 30 Phạm Hùng, Huyện Hòa Thành, Tỉnh Tây Ninh (Thửa 155-157, TBĐ 21)",11.285290801946976,106.12688877604685
447,VM+ BDH 219 Nguyễn Lữ,vinmart+,"219 Nguyễn Lữ, Phường Ngô Mây, TP Quy Nhơn, Tỉnh Bình Định",13.764560968834715,109.21812393687445
448,VM+ BDH 07-09 Ngô Mây,vinmart+,"07-09 Ngô Mây, Phường Nguyễn Văn Cừ, TP Quy Nhơn, Tỉnh Bình Định",13.761669200766807,109.21950795672615
449,VM+ VTU 33A đường 30 tháng 4,vinmart+,"Tầng trệt tòa nhà Lapen Center, 33A 33A đường 30 tháng 4, phường 9, thành phố Vũng Tàu, tỉnh Bà rịa Vũng Tàu.",10.370114798191137,107.08592870257576
450,VM+ TNH 275 Hùng Vương,vinmart+,"275 Hùng Vương, Khu phố 4, thị trấn Hòa Thành, Huyện Hòa Thành, Tỉnh Tây Ninh. ",11.293494314667845,106.12866249528291
451,"VM+ TNH Thửa 210, TBĐ 18 Âu Cơ",vinmart+,"Thửa 210, TBĐ 18 Âu Cơ, Ấp Hiệp An, Xã Hiệp Tân, Huyện Hòa Thành, Tây Ninh (số cũ 109 Âu Cơ, Ấp Hiệp An, Xã Hiệp Tân, Huyện Hòa Thành, Tây Ninh)",11.284449089252059,106.12812259219368
452,VM+ HCM 09 Phạm Vấn,vinmart+,"09 Phạm Vấn, phường Phú Thọ Hòa, quận Tân Phú, Tp HCM",10.784363287070176,106.62443318389136
453,VM+ HCM 185B Nguyễn Thị Định,vinmart+,"185B Nguyễn Thị Định, phường An Phú, quận 2, TP HCM",10.789887171661636,106.75489046595771
454,VM+ HCM 606/144-606/146 Ba Tháng Hai,vinmart+,"VM+ HCM 606/144-606/146 Ba Tháng Hai, Phường 14, Quận 10, TPHCM",10.765586854470904,106.66286923907478
455,VM+ DTP 304 Hùng Vương,vinmart+,"304 Hùng Vương, Phường 1, TP Sa Đéc, tỉnh Đồng Tháp",10.300450761560645,105.76146730206688
456,VM+ DNI 34 Bùi Trọng Nghĩa,vinmart+,"34 Bùi Trọng Nghĩa, P.Trảng Dài, TP Biên Hoà, T.Đồng Nai",10.984526721419682,106.86384716056068
457,VM+ CTO 261 Nguyễn Văn Cừ,vinmart+,"VM+ CTO 261 Nguyễn Văn Cừ, Phường An Hòa, Quận Ninh Kiều, Cần Thơ",10.047181852073614,105.76913573764044
458,VM+ CTO 151/19 Trần Hoàng Na,vinmart+,"151/19 Trần Hoàng Na, phường Hưng Lợi quận Ninh Kiều, thành phố Cần Thơ",10.010511079233543,105.76580711625296
459,VM+ HCM 16 đường số 5A,vinmart+,"Số 16 đường số 5A, KDC Trung Sơn, ấp 4B, xã Bình Hưng, huyện Bình Chánh, Đô thị mới Nam TPHCM",10.729775063845217,106.65249177239616
460,VM+ BTE 80 Nguyễn Huệ,vinmart+,"80 Nguyễn Huệ, Phường 1, TP Bến Tre",10.237320015738302,106.38102271578987
461,"VM+ BTE TBD 19, TD 41 và 42",vinmart+,"TBD 19, TD 41 và 42, Phường Phú Tân, TP Bến Tre (261K Đường số 1)",10.238544745267717,106.36173226855476
462,VM+ DTP 98 Lê Lợi,vinmart+,"98 Lê Lợi, Phường 2, TP Cao Lãnh, tỉnh Đồng Tháp",10.454909260386524,105.63888766787727
463,VM+ KGG 208 Nguyễn Bỉnh Khiêm,vinmart+,"208 đường Nguyễn Bỉnh Khiêm, KP Đồng Khởi, Phường Vĩnh Quang, TX Rạch Giá, Tỉnh Kiên Giang",10.018758006731098,105.08472719214636
464,VM+ KGG 428 Ngô Quyền,vinmart+,"428 Ngô Quyền, Phường Vĩnh Bảo, TP Rạch Giá, Tỉnh Kiên Giang  ",9.996450737098725,105.0978968384095
465,VM+ HCM 33/4 ấp Mới 1,vinmart+,"33/4 ấp Mới 1, Xã Tân Xuân, Hóc Môn, TPHCM",10.873818464430416,106.6043219806977
466,VM+ Lavita Garden,vinmart+,"0.14 tầng 01 (trệt), Chung cư cao tầng phường Trường Thọ, 17 Đường số 3, Khu phố 6, Phường Trường Thọ, Quận Thủ Đức, TPHCM -CC Lavita",10.834083810945339,106.7628298046418
467,VM HCM 48 Liêu Bình Hương,vinmart+,"48 Liêu Bình Hương, ấp Tân Tiến, xã Tân Thông HỘi, H. Củ Chi TP HCM",10.963511462949297,106.50377937577446
468,VM+ QNM 536 Hai Bà Trưng,vinmart+,"536 Hai Bà Trưng, Phường Tân An, Hội An, Quảng Nam",15.887977755613658,108.32790144704063
469,VM+ HCM Jamila Khang Điền,vinmart+,"A01 –TMDV01-02 Cao Ốc Jamila, 60 đường 697, KP2, phường Phú Hữu, quận 9, TP HCM",10.79571394970486,106.78457179091652
470,VM+ QNI 776 Quang Trung,vinmart+,"776 Quang Trung, Phường Chánh Lộ, TP Quảng Ngãi, Tỉnh Quảng Ngãi",15.114061547858984,108.80811878464895
471,"VM+ QNI Thửa 205, TBĐ 14, Nguyễn Văn Linh",vinmart+,"VM+ Thửa 205, TBĐ 14, Nguyễn Văn Linh, P Trương Quang Trọng, TP Quảng Ngãi, Tỉnh Quảng Ngãi (330-332 Nguyễn Văn Linh)",15.154854057442277,108.79635461590964
472,VM+ QNI 241 Trần Hưng Đạo,vinmart+,"241 Trần Hưng Đạo, Phường Trần Phú, TP Quảng Ngãi, Tỉnh Quảng Ngãi",15.120982975529303,108.7968508245774
473,VM+ QNI 49 Trần Quang Diệu,vinmart+,"49 Trần Quang Diệu, P. Nghĩa Lộ, TP Quảng Ngãi, Tỉnh Quảng Ngãi",15.118699162412785,108.79587450049598
474,VM+ QNI 39 Trương Định,vinmart+,"39 Trương Định, P. Trần Phú, TP Quảng Ngãi, Tỉnh Quảng Ngãi",15.121495664889087,108.78521271966179
475,VM+ HCM 81 đường số 2,vinmart+,"VM+ HCM 81 đường số 2, KP6, Phường Hiệp Bình Phước, Thủ Đức, TPHCM",10.838799350289216,106.719463849289
476,"VM+ DNG Thửa 115,118 TBĐ 186, Liên Chiểu",vinmart+,"Thửa 115, 118, TBĐ 186, Tổ 22, Phường Hòa Khánh Nam, Liên Chiểu, Đà Nẵng (K1/51 Phạm Như Xương)",16.06330055322427,108.15516986869056
477,VM+ DNG 84 Bùi Tá Hán,vinmart+,"84 Bùi Tá Hán, Phường Khuê Mỹ, Quận Ngũ Hành Sơn, Đà Nẵng (Lô số 15 khu B3-5 thuộc khu số 4  NCTS)",16.031438983469346,108.24556567691047
478,VM+ BTN 213 Nguyễn Hội,vinmart+,"213 Nguyễn Hội, Phường Phú Tài, TP Phan Thiết, Tỉnh Bình Thuận",10.943113569298577,108.09884884379585
479,VM+ KHA 45 Phước Long,vinmart+,"45 Phước Long, phường Phước Long, thành phố Nha Trang, tỉnh Khánh Hoà",12.212296322114488,109.19666626475531
480,VM+ KHA 128A Bạch Đằng,vinmart+,"128A Bạch Đằng , Nha Trang, Khánh Hòa",12.240482628301823,109.191297823412
481,VM+ VTU 238 Ba Cu,vinmart+,"VM+ VTU 238 Ba Cu, Phường 3, Vũng Tàu, Bà Rịa Vũng Tàu",10.35369034968615,107.08279856465538
482,VM+ HCM BTM1-3 Trệt Chung cư Centana,vinmart+,"BTM1-3 BlockB tầng 1 (trệt), khu phố 3 Centana, 36 mai Chí Thọ, phường An Phú, quận 2, TP HCM , Việt Nam",10.790955576454136,106.7521814348527
483,VM HCM 785A-785B Nguyễn Ảnh Thủ,vinmart+,"785A-785B Nguyễn Ảnh Thủ, khu phố 10, phường Tân Chánh Hiệp, quận 12, TP HCM",10.875422596566796,106.62342199109275
484,"VM+HCM 001 SAV4, CC Avenue",vinmart+,"0.01. Tầng trệt tháp 4, Sun Avenue 28 Mai Chí Thọ, phường An Phú, quận 2, Tp HCM",10.78578082592035,106.75077863953787
485,VM+HCM 01.04 Chung cư Pegasuite,vinmart+,,10.733944101452296,106.65336080811701
486,VM+HCM TM05 CC OSIMI,vinmart+,"TM05- Dự án KDC Sông Đà 434/16 đường 26 tháng 3, phường 15, quận Gò Vấp , TPHCM - CC OSIMI",10.849455141729115,106.67419486664015
487,VM HCM 254/63 âu Cơ,vinmart+,"254/63 Âu Cơ, phường 9 quận Tân Bình, Tp HCM",10.770535345926001,106.65076711199957
488,VM+ KGG 37 đường 3/2,vinmart+,"37 đường 3/2, Phường Vĩnh Thanh Vân, TP Rạch Giá, Tỉnh Kiên Giang",10.007167741935657,105.07967391036232
489,VM+ DNG 426 Cách Mạng Tháng Tám,vinmart+,"426 Cách Mạng Tháng Tám, phường Hòa Thọ Đông, quận Cẩm Lệ, Đà Nẵng",16.014458930836607,108.19916346095283
490,VM+ DNG 28 Lê Tấn Trung,vinmart+,"28 Lê Tấn Trung, phường Thọ Quang, quận Sơn Trà, Đà Nẵng",16.09936662681143,108.24898012898643
491,VM+ HCM CC An Cư,vinmart+,,10.798072030342645,106.73899301312643
492,"VM+HCM 001 SAV2, CC Avenue",vinmart+,"0.01 Tần Trệt Tháp 2, Sun Avenue, 28 Mai Chí Thọ phường An Phú, quận 2, TP HCM",10.785257812828547,106.74807497285087
493,VM+ HCM 163/25/1 Tô Hiến Thành,vinmart+,"163/25/1 Tô Hiến Thành, Phường 13, Quận 10, TPHCM",10.782482666435854,106.67166755519587
494,VM+HCM 42 Thăng Long,vinmart+,"42 Thăng Long, phường 4, quận Tân Bình, TP HCM",10.805022332392188,106.66316562317093
495,VM+ GLI 06 Trần Quốc Toản ,vinmart+,"06 Trần Quốc Toản, P. Yên Đỗ, TP Pleiku, Tỉnh Gia Lai ",13.979230355190493,107.99112596533972
496,VM+ DLK 93 - 95 Nguyễn Công Trứ,vinmart+,"93-95 Nguyễn Công Trứ, Phường Tự An, TP Buôn Ma Thuột, Tỉnh Đăk Lăk",12.678774904746248,108.05019893668371
497,VM+ DNG 588 Phạm Hùng,vinmart+,"588 Phạm Hùng, xã Hòa Phước, huyện Hòa Vang, Đà Nẵng",15.984400968286,108.20798792861186
498,VM+ DNG 64 Tô Hiến Thành,vinmart+,"VM+ DNG 64 Tô Hiến Thành, Phường Phước Mỹ, Sơn Trà, Đà Nẵng",16.059643066392688,108.24365594409187
499,VM+ AGG 90/15A Hà Hoàng Hổ,vinmart+,"590/15A Hà Hoàng Hổ, Phường Đông Xuyên, TP Long Xuyên, Tỉnh An Giang",10.378069462436393,105.43404736540992
500,VM+ DNI 27 Phùng Hưng,vinmart+,"27 Phùng Hưng, Tổ 4, Ấp Long Đức 3, Phường Tam Phước, TP Biên Hòa, Tỉnh Đồng Nai",10.861527733995695,106.96099140666206
501,"VM+ HNI Kiot 2 Tòa B, Dự án X2 Cầu Diễn",vinmart+,"Kiot dịch vụ số 2, Tầng 1, Tòa nhà B, Dự án X2, Phường Cầu Diễn, Nam Từ Liêm, Hà Nội",21.033791151409105,105.79061486743171
502,VM+ LSN 9A Bà Triệu,vinmart+,"Số 9A Bà Triệu, phường Hoàng Văn Thụ, tp Lạng Sơn, tỉnh Lạng Sơn",21.866930973525893,106.7569772245713
503,VM+ HPG 194 Phan Đăng Lưu,vinmart+,"194 Phan Đăng Lưu, Tổ 3, Phường Trần Thành Ngọ, Quận Kiến An, Thành phố Hải Phòng",20.809164622484733,106.62395575068672
504,VM+ HNI Thôn Chằm-Bình Minh,vinmart+,"Thôn Chằm, Xã Bình Minh, Huyện Thanh Oai, Thành phố Hà Nội",20.892206756702443,105.76626040957649
505,VM+ BNH 628 Phố Ba Huyện,vinmart+,"Số 628 Phố Ba Huyện, Phường Khắc Niệm, Thành phố Bắc Ninh, Bắc Ninh",21.15782240516484,106.071447515709
506,VM+ BNH Thôn Do Nha-Phương Liễu,vinmart+,"Thôn Do Nha, Xã Phương Liễu, Huyện Quế Võ, Tỉnh Bắc Ninh",21.173600399378085,106.10855319522102
507,VM+ BNH Số 74 Đường Nguyễn Đăng Đạo,vinmart+,"Số 74, Đường Nguyễn Đăng Đạo, Thị Trấn Lim, Huyện Tiên Du, Tỉnh Bắc Ninh",21.14304339266186,106.01977475903708
508,VM+ HGG 35 An Cư,vinmart+,"Số 35 An Cư, Tổ 6, Phường Trần Phú, Thành phố Hà Giang, Tỉnh Hà Giang",22.833948038153824,104.98785653136451
509,VM+ HGG 461 Lý Thường Kiệt,vinmart+,"Số 461 đường Lý Thường Kiệt, Tổ 6, Phường Ngọc Hà, Thành phố Hà Giang, Tỉnh Hà Giang",22.835446070011983,104.99022760413368
510,VM+ HGG 89 Nguyễn Thái Học,vinmart+,"Số 89, Đường Nguyễn Thái Học, Tổ 16, Phường Minh Khai,Thành phố Hà Giang, Tỉnh Hà Giang",22.82402254253921,104.98585023902136
511,VM+ HGG 469 Nguyễn Trãi,vinmart+,"Số 469, Nguyễn Trãi, Tổ 9, Phường Nguyễn Trãi, Thành phố Hà Giang, Tỉnh Hà Giang",22.824959500707394,104.98379566691595
512,VM+ HGG Số 288 Trần Phú,vinmart+,"Số 288 Trần Phú, Tổ 5, Phường Trần Phú, Thành phố Hà Giang, Tỉnh Hà Giang",22.83365881228179,104.988843584282
513,VM+ HGG Số 65 Nguyễn Văn Linh,vinmart+,"Số 65 Nguyễn Văn Linh, Tổ 1, Phường Quang Trung, Thành phố Hà Giang, Tỉnh Hà Giang",22.83528291882781,104.98176255248268
514,VM+ HNI B12 Chợ Phú Cường,vinmart+,"B12 Chợ Phú Cường, Xã Phú Cường, Huyện Sóc Sơn, Hà Nội",21.210670059660192,105.786524498684
515,VM+ TTH 43 Nguyễn Công Trứ,vinmart+,"43 Nguyễn Công Trứ, Phú Hội, Thành phố Huế, Thừa Thiên Huế ",16.469843172257846,107.59705045245369
516,VM+ TTH 102 Điện Biên Phủ,vinmart+,"102 Điện Biên Phủ, Trường An, TP Huế, Thừa Thiên Huế",16.452524718573347,107.58121871374328
517,VM+ NDH 40 Đông A,vinmart+,"40 Đông A, Phường Lộc Vượng, TP Nam Định, Tỉnh Nam Định",20.446107678240427,106.16595246813972
518,VM+ HNI 168 Thôn Mới,vinmart+,"Số 168 Thôn Mới, Xã Cao Dương, Huyện Thanh Oai, Thành phố Hà Nội",20.81107513142999,105.76053121112068
519,VM+ NDH 71 Bắc Ninh,vinmart+,"71 Bắc Ninh, phường Nguyễn Du, TP Nam Định, tỉnh Nam Định.",20.428307931647407,106.1768797876664
520,VM+ TNN 25-27 Hoàng Ngân,vinmart+,"25 - 27 Hoàng Ngân, phường Phan Đình Phùng, Thành phố Thái Nguyên, Tỉnh Thái Nguyên. ",21.585933262783364,105.8426792266198
521,VM+ THA 31A-31B Tống Duy Tân,vinmart+,"31A-31B Tống Duy Tân, Phường Lam Sơn, TP Thanh Hóa, Tỉnh Thanh Hóa",19.802765410502328,105.78419634125908
522,VM+ THA 410 Bà Triệu,vinmart+,"410 Bà Triệu, Phường Đông Thọ, TP Thanh Hóa, Tỉnh Thanh Hóa",19.821835074973315,105.77401199362951
523,VM+ NDH 42-44 Hàn Thuyên,vinmart+,"42-44 Hàn Thuyên, Phường Vị Hoàng, TP Nam Định, Tỉnh Nam Định",20.4330628171258,106.17929578743656
524,VM+ TNN 188 Thống Nhất,vinmart+,"188 Thống Nhất, Phường Đồng Quang, TP Thái Nguyên, Thái Nguyên",21.578665281153988,105.83712437174995
525,VM+ TNN 151C Đường Z115,vinmart+,"151C Đường Z115, Phường Tân Thịnh, TP Thái Nguyên, Tỉnh Thái Nguyên",21.583274530751034,105.8099911453553
526,VM+ LCI 060 Nguyễn Huệ,vinmart+,"060 Đường Nguyễn Huệ, Phường Lào Cai, Thành phố Lào Cai, Tỉnh Lào Cai",22.498282174452385,103.97397615931708
527,VM+ LCI 737 Lê Thanh,vinmart+,"737 Lê Thanh, Phường Bắc Cường, Thành phố Lào Cai, Lào Cai",22.460417061080612,103.98354628108223
528,VM+ LSN Số 26 Đường Mỹ Sơn,vinmart+,"Số 26, Đường Mỹ Sơn, Khối 8, Phường Vĩnh Trại, Thành phố Lạng Sơn, Tỉnh Lạng Sơn",21.85519876112552,106.7732045891114
529,VM+ HNI 55 Cầu Cốc,vinmart+,"55 Cầu Cốc, Phường Tây Mỗ, Nam Từ Liêm, Hà Nội",21.004492426530124,105.7431022169419
530,VM+ BNH 679 Xuân Ổ A,vinmart+,"Số 679 Xuân Ổ A, Phường Võ Cường, Thành phố Bắc Ninh, Tỉnh Bắc Ninh",21.15527595740781,106.0370294096299
531,VM+ BNH 69 Trần Phú-Đông Ngàn,vinmart+,"Số 69 Trần Phú, Phường Đông Ngàn, Thị xã Từ Sơn, Tỉnh Bắc Ninh",21.119170723240334,105.96198656581123
532,VM+ BNH Xóm Giữa-Khu Dương Ổ,vinmart+,"Xóm Giữa, Khu Dương Ổ, Phường Phong Khê, Thành Phố Bắc Ninh",21.163855660567894,106.03201367877205
533,VM+ BNH Thôn An Ninh-Yên Phụ,vinmart+,"Thôn An Ninh, Xã Yên Phụ, Huyện Yên Phong, Tỉnh Bắc Ninh",21.202710732542027,105.92472531817634
534,VM+ BGG 243 Đường Giáp Hải,vinmart+,"243 Đường Giáp Hải, Phường Dĩnh Kế, Thành phố Bắc Giang, Tỉnh Bắc Giang",21.284469044267595,106.22358777545172
535,"VM+ HPG Xóm Trại, X. Thủy Đường",vinmart+,"Xóm Trại, Xã Thủy Đường, Huyện Thủy Nguyên, Hải Phòng",20.945562096640863,106.67179563067634
536,VM+ HPG 251-253 Đào Nhuận,vinmart+,"251-253 Đào Nhuận, Phường Kênh Dương, Quận Lê Chân, Hải Phòng",20.829832936838333,106.68910124324043
537,VM+ HPG Thôn Phương Mỹ-Mỹ Đồng,vinmart+,"Thôn Phương Mỹ, Xã Mỹ Đồng, Huyện Thủy Nguyên, Thành phố Hải Phòng",20.916331254446774,106.67555072329719
538,"VM+ HPG Khu 5,TT Tiên Lãng",vinmart+,"Khu 5, Thị trấn Tiên Lãng, Huyện Tiên Lãng, Hải Phòng",20.729051920987672,106.56302132628642
539,VM+ HPG 850 Trần Nhân Tông,vinmart+,"850 Trần Nhân Tông, Tổ dân phố Cận Sơn, Phường Văn Đẩu, Quận Kiến An, Thành phố Hải Phòng",20.804666557008023,106.63748481295784
540,VM+ HPG Thôn Đình X.Trung Hà,vinmart+,"Thôn Đình, Xã Trung Hà, Huyện Thủy Nguyên, Thành Phố Hải Phòng",20.940231425617267,106.7001197578736
541,VM+ HPG 188 phố 3.2 TT Vĩnh Bảo,vinmart+,"188 phố 3.2 TT Vĩnh Bảo, Huyện Vĩnh Bảo, Thành Phố Hải Phòng",20.690841500044733,106.47996404193123
542,VM+ HNI BT25-C37 Bộ Công An,vinmart+,"BT25, Lô TT2, Khu nhà ở C37 BCA, Khu đô thị mới Phùng Khoang, Phường Trung Văn, Quận Nam Từ Liêm, TP Hà Nội",20.988746554338128,105.79302885554512
543,VM+ HTH 191 Nguyễn Du,vinmart+,"191 Nguyễn Du, Phường Nguyễn Du, TP Hà Tĩnh, Tỉnh Hà Tĩnh",18.348169317453227,105.89563944361885
544,VM+ HTH 261B Hải Thượng Lãn Ông,vinmart+,"261B Hải Thượng Lãn Ông, Phường Tân Giang, TP Hà Tĩnh, Tỉnh Hà Tĩnh",18.34526957152677,105.90312817118843
545,VM+ HTH 520 Nguyễn Công Trứ,vinmart+,"520 Nguyễn Công Trứ, Phường Thạch Quý, TP Hà Tĩnh, Tỉnh Hà Tĩnh",18.356056176458427,105.89973249457556
546,VM+ QNH Tổ 10 Khu 2 Phường Hà Tu,vinmart+,"Tổ 10, Khu 2, Phường Hà Tu, Thành phố Hạ Long, Quảng Ninh",20.95382826928902,107.14093544505316
547,"VM+ HYN Thôn Đạo Khê, Yên Mỹ",vinmart+,"Thôn Đạo Khê, Xã Trung Hưng, Huyện Yên Mỹ, Tỉnh Hưng Yên",20.639765510677663,106.02609136126715
548,VM+ HYN 62B-64 Điện Biên,vinmart+,"62B-64 Điện Biên, Phường Lê Lợi, TP Hưng Yên, Tỉnh Hưng Yên",20.65297282945024,106.05765023253642
549,VM+ HNI 183 Nguyễn Ngọc Vũ,vinmart+,"Số 183 Đường Nguyễn Ngọc Vũ, Tổ 6, phường Trung Hòa, Quận Cầu Giấy, Thành phố Hà Nội ",21.012615124531575,105.80722310565191
550,VM+ HNI 67+69 Đường Ngô Đình Mẫn,vinmart+,"Số 67+69 Đường Ngô Đình Mẫn, Phường La Khê, Quận Hà Đông, Thành phố Hà Nội",20.968095109805333,105.7601235153504
551,VM+ HNI Kiot 03 CT4 KĐTM Thạch Bàn,vinmart+,"Kiot 03 - Tầng 01, chung cư CT4, KĐTM Thạch Bàn, Phường Thạch Bàn, Quận Long Biên, Hà Nội",21.021758890320555,105.90318717978676
552,VM+ LCI 096 Hưng Hóa,vinmart+,"096 Hưng Hóa, Phường Duyên Hải, Thành phố Lào Cai, Lào Cai",22.50205869972661,103.9651892425843
553,VM+ LCI Số 003 Soi Tiền,vinmart+,"Số 003 Soi Tiền, Phường Cốc Lếu, Thành phố Lào Cai, Tỉnh Lào Cai",22.49510773191978,103.96928229354106
554,VM+ LCI Số 003 Soi Tiền,vinmart+,"Số 003 Soi Tiền, Phường Cốc Lếu, Thành phố Lào Cai, Tỉnh Lào Cai",22.49510773191978,103.96928229354106
555,VM+ LCI 011 Đường Thanh Niên,vinmart+,"011 Đường Thanh Niên, Phường Duyên Hải, Thành phố Lào Cai, Tỉnh Lào Cai",22.50283678989217,103.9652965309449
556,VM+ LCI 287 Hồng Hà,vinmart+,"287 Hồng Hà, Phường Cốc Lếu, Thành phố Lào Cai, Tỉnh Lào Cai",22.49688949278564,103.96930911563118
557,VM+ LCI 02-04 Võ Nguyên Giáp,vinmart+,"Số 02-04 Đường Võ Nguyên Giáp, Phường Bắc Cường, Thành phố Lào Cai, Tỉnh Lào Cai",22.46540916668943,103.98806848548134
558,VM+ LCI 085-086 Nhạc Sơn,vinmart+,"Số 085, 086 Nhạc Sơn, Phường Duyên Hải, Thành phố Lào Cai, Tỉnh Lào Cai",22.49910984695021,103.96460452101906
559,VM+ HTH 67 Hải Thượng Lãn Ông,vinmart+,"67 Hải Thượng Lãn Ông, Phường Trần Phú, TP Hà Tĩnh, Hà Tĩnh",18.343092820702868,105.89462020419322
560,VM+ YBI 102 Đại Lộ Nguyễn Thái Học,vinmart+,"Số 102 Đại lộ Nguyễn Thái Học, phường Nguyễn Thái Học, TP. Yên Bái, Yên Bái",21.710953154588367,104.877000832779
561,VM+ YBI Số 2 Quang Trung-Đồng Tâm,vinmart+,"Số 2 Quang Trung, Phường Đồng Tâm, Thành phố Yên Bái, Tỉnh Yên Bái",21.715498377937752,104.90761556647499
562,VM+ YBI 592 Đường Điện Biên-Minh Tân,vinmart+,"Số 592 Đường Điện Biên, Phường Minh Tân, Thành phố Yên Bái, Yên Bái",21.71541490062344,104.90073301814276
563,VM+ QBH 55 Trường Chinh,vinmart+,"55 Trường Chinh, Phường Bắc Lý, TP Đồng Hới, Tỉnh Quảng Bình",17.483061548830676,106.6008458378144
564,VM+ QBH 183 Lý Thái Tổ,vinmart+,"183 Lý Thái Tổ, Phường Đồng Sơn, TP Đồng Hới, Quảng Bình",17.448966363088168,106.57605149768074
565,VM+ QBH 55 Lê Thành Đồng,vinmart+,"55 Lê Thành Đồng, Phường Hải Thành, TP Đồng Hới, Tỉnh Quảng Bình",17.48420254996664,106.62067272685249
566,VM+ QBH 31 Hoàng Diệu ,vinmart+,"31 Hoàng Diệu, Phường Nam Lý, TP Đồng Hới, Quảng Bình",17.467493587626464,106.59796782754142
567,VM+ QBH 31 Hoàng Diệu ,vinmart+,"31 Hoàng Diệu, Phường Nam Lý, TP Đồng Hới, Quảng Bình",17.467493587626464,106.59796782754142
568,VM+ QBH 35 Trương Pháp,vinmart+,"35 Trương Pháp, Phường Hải Thành, TP Đồng Hới, Tỉnh Quảng Bình",17.48151632512094,106.62501790545662
569,VM+ QBH 10 Lê Quý Đôn,vinmart+,"10 Lê Quý Đôn, Phường Đồng Mỹ, TP Đồng Hới, Quảng Bình",17.477653208427167,106.62130304597099
570,VM+ QBH 93 Tố Hữu,vinmart+,"93 Tố Hữu, Phường Nam Lý, TP Đồng Hới, Tỉnh Quảng Bình",17.468197180748113,106.604375624878
571,VM+ NAN 45 Nguyễn Sinh Sắc,vinmart+,"45 Nguyễn Sinh Sắc, Phường Cửa Nam, TP Vinh, Tỉnh Nghệ An",18.66684785164584,105.66257157347877
572,VM+ NAN 46 Hải Thượng Lãn Ông,vinmart+,"46 Hải Thượng Lãn Ông, Phường Hà Huy Tập, TP Vinh, Tỉnh Nghệ An",18.68853232392703,105.68317630313118
573,VM+ NAN 7 Nguyễn Quốc Trị,vinmart+,"7 Nguyễn Quốc Trị, Phường Hưng Bình, TP Vinh, Tỉnh Nghệ An",18.68213449890021,105.67968406699379
574,VM+ NAN 7 Nguyễn Quốc Trị,vinmart+,"7 Nguyễn Quốc Trị, Phường Hưng Bình, TP Vinh, Tỉnh Nghệ An",18.68213449890021,105.67968406699379
575,VM+ NAN 75 Trường Chinh,vinmart+,"75 Trường Chinh, Phường Lê Lợi, TP Vinh, Nghệ An",18.679497040819193,105.66495873950205
576,VM+ HNI Thôn Quất Động,vinmart+,"Thôn Quất Động, Xã Quất Động, Huyện Thường Tín, Thành phố Hà Nội",20.87023375298359,105.86678960345465
577,VM+ NDH 182 Song Hào,vinmart+,"182 Song Hào, Phường Văn Miếu, TP Nam Định, Tỉnh Nam Định",20.411592089342662,106.16509416125496
578,VM+ NDH 182 Song Hào,vinmart+,"182 Song Hào, Phường Văn Miếu, TP Nam Định, Tỉnh Nam Định",20.411592089342662,106.16509416125496
579,VM+ NDH 111 Hàng Thao,vinmart+,"111 Hàng Thao, Phường Ngô Quyền, TP Nam Định, Tỉnh Nam Định",20.4218430121645,106.1759463789292
580,VM+ NDH 241 Giải Phóng,vinmart+,"241 Giải Phóng, Phường Trường Thi, TP Nam Định, Tỉnh Nam Định",20.535180956347865,105.91641047023018
581,VM+ HNM 414 Lý Thường Kiệt,vinmart+,"414 Lý Thường Kiệt, Phường Lê Hồng Phong, TP Phủ Lý, Hà Nam",20.53814482017915,105.90895392916876
582,"VM+ HNI Thôn Thọ Giáo, Tân Minh",vinmart+,"Thôn Thọ Giáo, Xã Tân Minh, Huyện Thường Tín, Thành phố Hà Nội",20.871276340391308,105.86494424365242
583,VM+ HMN 203 Đinh Tiên Hoàng,vinmart+,"203 Đinh Tiên Hoàng, Phường Trần Hưng Đạo, TP Phủ Lý, Hà Nam",20.528871251577343,105.92381336711128
584,VM+ HNM 228 Biên Hòa,vinmart+,"228 Biên Hòa, Phường Minh Khai, TP Phủ Lý, Tỉnh Hà Nam",20.534578129556838,105.92151739619452
585,VM+ HNI 28 Hòe Thị,vinmart+,"28 Hòe Thị, Phường Phương Canh, Quận Nam Từ Liêm, Hà Nội",21.03810710652745,105.74202396891792
586,VM+ HTH 64 Nguyễn Huy Tự ,vinmart+,"64 Nguyễn Huy Tự, Phường Bắc Hà, TP Hà Tĩnh, Tỉnh Hà Tĩnh",18.351545079755393,105.8966157677003
587,VM+ HTH 201 Nguyễn Biểu,vinmart+,"201 Nguyễn Biểu, Phường Nam Hà, TP Hà Tĩnh, Tỉnh Hà Tĩnh",18.338769788648605,105.89641728423315
588,VM+ HTH 147 Lý Tự Trọng,vinmart+,"147 Lý Tự Trọng, Phường Bắc Hà, TP Hà Tĩnh, Hà Tĩnh",18.341900687944246,105.90282876960714
589,VM+ HTH 01 Trần Phú,vinmart+,"01 Trần Phú, Phường Nam Hồng, Thị xã Hồng Lĩnh, Tỉnh Hà Tĩnh",18.517379991799878,105.71962484143455
590,VM+ HTH 357 Trần Phú,vinmart+,"357 Trần Phú, Phường Thạch Linh, TP Hà Tĩnh, Tỉnh Hà Tĩnh",21.029425,105.829582
591,VM+ HTH 132 Lê Duẩn,vinmart+,"132 Lê Duẩn, Phường Trần Phú, TP Hà Tĩnh, Tỉnh Hà Tĩnh",21.029425,105.829582
592,VM+ NAN 24 Trần Hưng Đạo,vinmart+,"24 Trần Hưng Đạo, Phường Cửa Nam, TP Vinh, Tỉnh Nghệ An",21.029425,105.829582
593,VM+ QTI 35 Hùng Vương,vinmart+,"35 Hùng Vương, Phường 1, TP Đông Hà, Tỉnh Quảng Trị",21.029425,105.829582
594,489 Ngô Quyền,vinmart+,"Số 489 Ngô Quyền, Phường Kim Tân, Thành phố Lào Cai, Tỉnh Lào Cai",21.029425,105.829582
595,VM+ BDH 112 Nguyễn Thái Học,vinmart+,"112 Nguyễn Thái Học, Phường Lê Hồng Phong, TP Quy Nhơn, Tỉnh Bình Định",16.0743026733398,108.217575073242
596,VM Hồ Chí Minh 254/63 âu Cơ,vinmart+,"254/63 Âu Cơ, phường 9 quận Tân Bình, Tp Hồ Chí Minh",10.7729549407959,106.65282440185499
597,VM+ Hồ Chí Minh CC An Cư,vinmart+,"Tầng Trệt Cao ốc An Cư, số 8, đường Thái Thuận, P An Phú ,Quận 2,TP Hồ Chí Minh( Queen Land )",10.7980070114136,106.739135742188
598,"VM+Hồ Chí Minh 001 SAV2, CC Avenue",vinmart+,"0.01 Tần Trệt Tháp 2, Sun Avenue, 28 Mai Chí Thọ phường An Phú, quận 2, TP Hồ Chí Minh",10.784539222717301,106.746459960938
599,VM+ Hồ Chí Minh 163/25/1 Tô Hiến Thành,vinmart+,"163/25/1 Tô Hiến Thành, Phường 13, Quận 10, TPHồ Chí Minh",10.779269218444801,106.669639587402
600,VM+ QNM 450 Cửa Đại,vinmart+,"450 Cửa Đại, Phường Cẩm Châu, Hội An, Quảng Nam",15.8806676864624,108.34294128418001
601,VM+ DNG 5 Phan Khoang,vinmart+,"5 Phan Khoang, Phường Hòa An, quận Cẩm Lệ, Đà Nẵng",16.0469188690186,108.17911529541
602,VM+ QNM 57 Hùng Vương,vinmart+,"57 Hùng Vương, phường Cẩm Phô, thành phố Hội An, Quảng Nam",15.8794803619385,108.32067108154301
603,VM+ BDG 7/3 Khu phố 2,vinmart+,"VM+ BDG 7/3 Khu phố 2, Phường An Phú, Thuận An, Bình Dương",10.9421672821045,106.73865509033199
604,VM+ Hồ Chí Minh A3 Chung cư Star Light,vinmart+,"Tổ hợp chung cư H098&T106 tại 241/42 Nguyễn Văn Luông, phường 11, quận 6 Tp Hồ Chí Minh",10.7598562240601,106.623100280762
605,VM+ KGG 79 Quang Trung,vinmart+,"79 Quang Trung, Phường Vĩnh Quang, TP Rạch Giá, Tỉnh Kiên Giang",10.0177221298218,105.078422546387
606,VM+ DNI 266/5 Phan Trung Mở rộng DTKD,vinmart+,266/5 Phan Trung - Khu Phố 2 - phường Tân Mai - thành phố Biên Hòa - tỉnh Đồng Nai - Việt Nam,10.9619493484497,106.853546142578
607,VM+ DNI 48 Nguyễn Ái Quốc,vinmart+,"48 Nguyễn Ái Quốc, P.Tam Hiệp,TP.Biên Hòa, Đồng Nai",10.9684543609619,106.862197875977
608,VM+ TGG 37/6 Lê Thị Hồng Gấm,vinmart+,"Số 37/6 Lê Thị Hồng Gấm, Phường 6, TP Mỹ Tho, Tỉnh Tiền Giang",10.3514270782471,106.346580505371
609,VM+ Hồ Chí Minh 124 Bông Sao,vinmart+,"124 Bông Sao, Phường 5, Quận 8, TPHồ Chí Minh",10.739068031311,106.66218566894501
610,VM+ DNG  Savico 66 Võ Văn Tần ,vinmart+,"VM+ DNG  Savico 66 Võ Văn Tần , Phường Chính Gián, Thanh Khê, Đà Nẵng",16.0669727325439,108.202880859375
611,VM+ STG 18 Yết Kiêu,vinmart+,"18 Yết Kiêu, Phường 6, TP Sóc Trăng, tỉnh Sóc Trăng",9.60773086547852,105.97655487060499
612,"VM+ DLK TBD 29, thửa 412( 166 - 168 Y Moan )",vinmart+,"TBD 29, thửa 412, Phường Tân Lợi, Thành phố Buôn Ma Thuột, tỉnh Đăk Lăk( 166 - 168 Y Moan )",12.704566955566401,108.053749084473
613,VM+ BTN 9 Nguyễn Tương,vinmart+,"9 Nguyễn Tương, P. Phú Thủy, Tp Phan Thiết, Tỉnh Bình Thuận",10.935281753539998,108.10929107666
614,"VM+ Hồ Chí Minh B1.03, Tầng 1+2, Block B, Gateway Thảo Điền",vinmart+,"B1.03, Tầng 1+2, Block B, Khu liên hợp cao ốc trung tâm thương mại-văn phòng và căn hộ, 177 Xa lộ Hà Nội, phường Thảo Điền, Quận 2, TPHồ Chí Minh",10.8086843490601,106.78220367431601
615,VM+ GLI 27-29 Nguyễn Văn Trỗi,vinmart+,"27-29 Nguyễn Văn Trỗi, Phường Hội Thương, TP Pleiku, Tỉnh Gia Lai",13.977807044982901,108.003890991211
616,VM+ GLI 339 Trường Chinh,vinmart+,"339 Trường Chinh,  P. Trà Bá, TP Pleiku, Tỉnh Gia Lai",13.9537887573242,108.01425170898399
617,VM+ GLI 105-107 Thống Nhất,vinmart+,"105 - 107 Thống Nhất, P. Ia Kring, TP Pleiku, Tỉnh Gia Lai",13.9725866317749,107.999473571777
618,VM+ GLI 32 Lê Duẩn,vinmart+,"32 Lê Duẩn, P. Trà Bá, TP Pleiku, Tỉnh Gia Lai",13.9707040786743,108.02189636230499
619,VM+ GLI Lô A5 86-87 Đường Tôn Thất Tùng,vinmart+,"Lô A5 86-87 Đường Tôn Thất Tùng, P. Phù Đổng, TP Pleiku, Tỉnh Gia Lai",13.982364654541,108.026512145996
620,VM+ GLI 306 CMT8,vinmart+,"306 Cách Mạng Tháng Tám, P. Hoa Lư, TP Pleiku, Tỉnh Gia Lai",13.986946105957001,108.02018737793001
621,VM+ GLI 115 Cách Mạng Tháng 8,vinmart+,"115 Cách Mạng Tháng 8, P Hoa Lư, TP Pleiku, Tỉnh Gia Lai",13.9873628616333,108.01125335693399
622,VM+Hồ Chí Minh RS6-SH.15 Chung cư Richstar,vinmart+,"Lô RS6.SH.15 Tầng 1 Tháp RS6, Khu Thương mại Dịch vụ và căn hộ - Khu 2, 239-241 Hòa Bình, Phường Hiệp Tân, Quận Tân Phú, TP. Hồ Chí Minh",10.772507667541499,106.624336242676
623,VM+ LAN 10-11-12 Trương Định,vinmart+,"10-11-12 Trương Định, P 1, Tp Tân An, Tỉnh Long An",10.5386962890625,106.413955688477
624,VM+ CTO13-15 Xuân Thủy ,vinmart+,"13-15 Xuân Thủy, KDC Cái Sơn- Hàng Bàng, P. An Bình, Q. Ninh Kiều, TP. Cần Thơ.",10.0261735916138,105.750701904297
625,VM+ STG 82 Điện Biên Phủ,vinmart+,"82 Điện Biên Phủ, Khóm 3, Phường 6, TP Sóc Trăng, tỉnh Sóc Trăng",9.607398033142081,105.97257232666
626,VM+ STG 95 Hùng Vương,vinmart+,"95 Hùng Vương, K1, Phường 6, TP Sóc Trăng, tỉnh Sóc Trăng",9.61293125152588,105.96881103515601
627,VM+ STG 62 đường 30 tháng 4,vinmart+,"62 đường 30 tháng 4, Phường 3, TP Sóc Trăng, tỉnh Sóc Trăng",9.601667404174801,105.975692749023
628,VM+ STG 41 Trương Công Định,vinmart+,"VM+ STG 41 Trương Công Định, Phường 2, TP Sóc Trăng, tỉnh Sóc Trăng",9.602293014526369,105.968818664551
629,VM+ STG 09 Phạm Ngũ Lão,vinmart+,"09 Phạm Ngũ Lão, Phường 1, TP Sóc Trăng, tỉnh Sóc Trăng",9.6077766418457,105.976661682129
630,VM+ STG 80 Tôn Đức Thắng,vinmart+,"80 Tôn Đức Thắng, Phường 8, TP Sóc Trăng, tỉnh Sóc Trăng",9.60782432556152,105.97657012939501
631,VM+Hồ Chí Minh 37-39 Chấn Hưng,vinmart+,"37-39 Chấn Hưng, phường 6, quận Tân Bình",10.7864103317261,106.663711547852
632,VM+ Hồ Chí Minh 339DE Nguyễn Cảnh Chân,vinmart+,"339DE Nguyễn Cảnh Chân, Phường Cầu Kho, Quận 1, TPHồ Chí Minh",10.7570791244507,106.689437866211
633,VM+ DNG 2 Đinh Công Trứ,vinmart+,"2 Đinh Công Trứ, Phường Thọ Quang, Quận Sơn Trà, Đà Nẵng",16.096294403076197,108.246124267578
634,VM+ KGG 14 Trần Quang Khải,vinmart+,"14 Trần Quang Khải, Phường An Hòa, TP Rạch Giá, Kiên Giang",9.98457717895508,105.103477478027
635,VM+ KGG 21 Nguyễn Văn Cừ,vinmart+,"21 Nguyễn Văn Cừ, KP 1, P An Hòa, Tp Rạch Giá, Tỉnh Kiên Giang",9.98873615264893,105.088768005371
636,VM+ VLG 01 Mậu Thân,vinmart+,"VM+ Số 1, Mậu Thân,Khóm 1 ,Phường 3,TP Vĩnh Long, Tỉnh Vĩnh Long",10.2482099533081,105.971580505371
637,VM+VLG 68 đường 2 tháng 9,vinmart+,"68  Đường 2 Tháng 9 Phường 1 , Thành Phố Vĩnh Long, Tỉnh Vĩnh Long",10.250909805297901,105.974311828613
638,VM+VLG 33/15D Phạm Thái Bường,vinmart+,"33/15D Phạm Thái Bường,phường 4, Vĩnh Long",10.2383890151978,105.982177734375
639,VM+ VLG 60/7 Mậu Thân,vinmart+,"60/7 Mậu Thân , khóm 3, phường 3, thành phố Vĩnh Long, Tỉnh Vĩnh Long",10.237586975097699,105.9677734375
640,VM+ VLG 87 Lê Thái Tổ,vinmart+,"87 Lê Thái Tổ, Khóm 3, Phường 2, Thành Phố Vĩnh Long, Tỉnh Vĩnh Long",10.2531843185425,105.96642303466801
641,VM+ Hồ Chí Minh 23/2 đường số 9,vinmart+,"23/2 đường số 9, Khu phố 4, Phường Trường Thọ, Quận Thủ Đức, TPHồ Chí Minh",10.8472805023193,106.757972717285
642,VM+ Hồ Chí Minh 85-87 đường số 6,vinmart+,"85-87 đường số 6, KDC phường Phú Hữu, Q.9, TPHồ Chí Minh",10.8040266036987,106.791206359863
643,"VM+ Hồ Chí Minh 0.01 Chung Cư CH1, Cityland",vinmart+,"0.01, Chung cư CH1, Đường số 10, Khu dân cư CityLand, Phường 10, Gò Vấp, TPHồ Chí Minh",10.833179473877001,106.682075500488
644,VM+ DNG 46 Lê Văn Thứ,vinmart+,"46 Lê Văn Thứ, Phường Mân Thái, Quận Sơn Trà, Đà Nẵng",16.0852127075195,108.24322509765601
645,"VM+ DLK TBD 7, thửa 268 và thửa 185",vinmart+,"TBD 7, thửa 268 và thửa 185 Phường Tự An, Thành phố Buôn Ma Thuột, Đắk Lắk(87-89 Hùng Vương)",12.681481361389197,108.052291870117
646,VM+Hồ Chí Minh 159 Tân Lập II,vinmart+,"159 Tân Lập II, Tổ 3,  KP 6, HIệp Phú, Quận 9, TP Hồ Chí Minh",10.8490772247314,106.78189086914101
647,VM+ DLK 113 Ama Khê,vinmart+,"113 Ama Khê, Phường Tân Lập, thành phố Buôn Ma Thuột, tỉnh Đắk Lắk",12.6837167739868,108.059043884277
648,"VM+ KGG Lô số F14-30, đường 3/2",vinmart+,"Lô số F14-30, đường 3/2, thuộc dự án lấn biển xây dựng khu đô thị mới, TP Rạch Giá, Kiên Giang",9.98327255249023,105.09122467041
649,"VM+ KGG Lô số D4-25, đường 3/2",vinmart+,"Lô số D4-25, đường 3/2, thuộc dự án lấn biển xây dựng khu đô thị mới, TP Rạch Giá, Kiên Giang",9.99062442779541,105.08786773681601
650,VM+ KGG 706 Nguyễn Trung Trực,vinmart+,"706 Nguyễn Trung Trực, Khu Phố 5, P Vĩnh Lạc, Tp Rạch Giá, Tỉnh Kiên Giang",9.98756790161133,105.099571228027
651,VM+ KGG 96 Nguyễn Thoại Hầu,vinmart+,"96 Nguyễn Thoại Hầu, Phường Vĩnh Thanh Vân, TP Rạch Giá, Kiên Giang",10.0188770294189,105.136619567871
652,VM+ KGG 07-07A Nguyễn Bỉnh Khiêm,vinmart+,"07 – 07A Nguyễn Bỉnh Khiêm, P Vĩnh Thạnh, TP Rạch Giá, Kiên Giang",10.021257400512699,105.09073638916
653,VM+ DLK 211 Mai Hắc Đế,vinmart+,"211 Mai Hắc Đế, Phường Tân Thành, TP Buôn Ma Thuột, Tỉnh Đăk Lăk",12.6687517166138,108.02614593505899
654,VM+ AGG 493/26 Quản Cơ Thành,vinmart+,"493/26 Quản Cơ Thành, phường Bình Khánh, TP.Long Xuyên, An Giang ( TBĐ số 35 )",10.3945274353027,105.42919921875
655,VM+ DLK 275-277 Phan Bội Châu,vinmart+,"275-277 Phan Bội Châu, Phường Thành Nhất_TP Buôn Ma Thuột_Tỉnh Đăk Lăk",12.6825218200684,108.03035736084
656,VM+ CTO 35 Nguyễn Chí Thanh,vinmart+,"35 Nguyễn Chí Thanh, Phường Trà Nóc, Quận Bình Thủy, Tp Cần Thơ",10.0985860824585,105.71527099609399
657,VM+351/29 Lê Đại Hành,vinmart+,"351/29 Lê Đại Hành, phường 11, quận 11, Tp Hồ Chí Minh",10.7660779953003,106.65280914306601
658,VM+ CTO 140B/1 Nguyễn Văn Cừ,vinmart+,"140B/1 Nguyễn Văn Cừ, P. An Hòa, Q. Ninh Kiều, Tỉnh Cần Thơ",10.0493879318237,105.77069091796899
659,VM+ 37 Đồng Nai,vinmart+,"37 Đồng Nai, Phường 15, Quận 10, Thành Phố Hồ Chí Minh",10.782463073730499,106.660171508789
660,VM+ DNG 278 Nguyễn Công Trứ,vinmart+,"278 Nguyễn Công Trứ, Phường Phước Mỹ, Sơn Trà, Đà Nẵng",16.0652923583984,108.24031066894501
661,VM+ Hồ Chí Minh Moonlight Parkview,vinmart+,"0.06 Tầng trệt (Tầng 1), Block A-B, Cao ốc An Lạc, đường số 7, phường An Lạc A, Bình Tân, TPHồ Chí Minh",10.7518997192383,106.62020874023399
662,VM+ QNM 134A-B Trần Nhân Tông,vinmart+,"134A-B Trần Nhân Tông, Khối Thanh Nam, Phường Cẩm Châu, Hội An, Quảng Nam",15.878422737121598,108.345474243164
663,VM+ QNM 127 Lê Hồng Phong,vinmart+,"127 Lê Hồng Phong, Phường Tân An, Hội An, Quảng Nam",15.888463973999,108.32260131835899
664,VM+ DTP 272-274 Điện Biên Phủ,vinmart+,"272-274 Điện Biên Phủ, phường Mỹ Phú, TP Cao Lãnh, Đồng Tháp",10.4736948013306,105.645950317383
665,"VM+ Hồ Chí Minh 48 đường số 26, KP5",vinmart+,"48 đường số 26, KP5, P. Hiệp Bình Chánh, Q. Thủ Đức, TPHồ Chí Minh",10.8324861526489,106.730323791504
666,"VM+ Hồ Chí Minh 45F1-46F1, Đường DN5",vinmart+,"45F1-46F1, đường DN5 (khu dân cư An Sương), khu phố 4, phường Tân Hưng Thuận, Q12, TPHồ Chí Minh  (Thửa 332-333, Đường DN5)",10.8434457778931,106.622108459473
667,VM+ AGG 244-245 Hàm Nghi,vinmart+,"VM+ AGG  244-245 đường Hàm Nghi, Phường Bình Khánh, Thành phố Long Xuyên, Tỉnh An Giang",10.3932104110718,105.420288085938
668,VM+TGG 8/6D Nguyễn An Ninh,vinmart+,"8/6D Nguyễn An Ninh, Phường 3, TP. Mỹ Tho, Tỉnh Tiền Giang  Thửa 587, TBĐ số 11  )",10.359112739563,106.374298095703
669,VM+ DLK 09 Tỉnh Lộ 5,vinmart+,"09 Tỉnh Lộ 5, Xã Cư Ê Bur, TP Buôn Ma Thuột, Tỉnh Đăk Lăk ( TBD 27, thửa 620 )",12.695368766784698,108.028701782227
670,VM+ DLK 24-26 Y Jut,vinmart+,"24-26 Y Jut, Phường Tân Tiến, Thành phố Buôn Ma Thuột, tỉnh Đak Lak",12.6792078018188,108.042915344238
671,VM+Hồ Chí Minh 218 đường số 5,vinmart+,"218 đường số 5, phường Bình Hưng Hòa, quận Bình Tân, Thành phố Hồ Chí Minh",10.805789947509801,106.60608673095699
